num,Longitude,Latitude,Altitude,Pitch,Yaw,Roll,VelocityX,VelocityY,VelocityZ,BatteryVolts,time,GPSFix,NumberOfSatellites
1,-78.6962748,35.7271224,-0.017,0.0010471546556800604,-0.020790303125977516,0.0012998738093301654,-0.02,0.02,0.0,12.587,2025-04-20 22:39:19.125496,6,10
2,-78.6962748,35.7271224,-0.017,0.0012171969283372164,-0.02005309984087944,0.0014814649475738406,0.0,0.0,0.0,12.587,2025-04-20 22:39:20.125889,6,10
3,-78.6962748,35.7271224,-0.017,0.0013710155617445707,-0.019304782152175903,0.0016431771218776703,-0.01,0.01,0.0,12.587,2025-04-20 22:39:21.126944,6,10
4,-78.6962748,35.7271224,-0.017,0.0013601869577541947,-0.018565747886896133,0.0016085074748843908,-0.01,0.01,0.0,12.587,2025-04-20 22:39:22.128078,6,10
5,-78.6962747,35.7271223,-0.017,0.0012219611089676619,-0.01787402294576168,0.0014616608386859298,-0.01,0.01,0.0,12.587,2025-04-20 22:39:23.129973,6,10
6,-78.6962747,35.7271223,-0.017,0.0010460588382557034,-0.01723433844745159,0.001291212858632207,-0.01,0.01,0.0,12.587,2025-04-20 22:39:24.130743,6,10
7,-78.6962747,35.7271223,-0.017,0.0009396399836987257,-0.016659623011946678,0.0011758285108953714,-0.01,0.01,0.0,12.587,2025-04-20 22:39:25.131888,6,10
8,-78.6962747,35.7271223,-0.017,0.000885305751580745,-0.016097407788038254,0.0011135238455608487,-0.01,0.01,0.0,12.587,2025-04-20 22:39:26.132789,6,10
9,-78.6962747,35.7271223,-0.017,0.0008601710433140397,-0.015559595078229904,0.0010911418357864022,-0.01,0.01,0.0,12.587,2025-04-20 22:39:27.133922,6,10
10,-78.6962747,35.7271223,-0.017,0.0008702918421477079,-0.015040323138237,0.0011009053559973836,-0.01,0.01,0.0,12.587,2025-04-20 22:39:28.134206,6,10
11,-78.6962747,35.7271223,0.002,0.0008897915831767023,-0.014534599147737026,0.0011112052015960217,-0.01,0.01,0.0,12.587,2025-04-20 22:39:29.134602,6,10
12,-78.6962747,35.7271223,0.002,0.0009509574738331139,-0.014041290618479252,0.0011864983243867755,0.0,0.0,0.0,12.587,2025-04-20 22:39:30.135761,6,10
13,-78.6962747,35.7271223,0.002,0.0011867807479575276,-0.013548118062317371,0.001410246011801064,0.0,0.0,0.0,12.587,2025-04-20 22:39:31.137007,6,10
14,-78.6962747,35.7271223,0.002,0.0014486766885966063,-0.013016223907470703,0.0016760296421125531,0.0,0.0,0.0,12.587,2025-04-20 22:39:32.138843,6,10
15,-78.6962747,35.7271223,0.002,0.0017290968680754304,-0.012452586553990841,0.0019828330259770155,0.0,0.0,0.0,12.587,2025-04-20 22:39:33.139411,6,10
16,-78.6962747,35.7271223,0.004,0.0020304571371525526,-0.011873899959027767,0.0022753842640668154,0.0,0.0,-0.05,12.587,2025-04-20 22:39:34.139836,6,10
17,-78.6962747,35.7271223,0.56,-0.0013762294547632337,-0.011650891043245792,-0.0014352691359817982,0.0,0.0,-1.17,12.587,2025-04-20 22:39:35.140960,6,10
18,-78.6962749,35.7271224,2.11,0.0025820995215326548,-0.012322187423706055,0.002834812505170703,0.0,0.0,-1.99,12.587,2025-04-20 22:39:36.142460,6,10
19,-78.696275,35.7271225,4.535,0.00327098835259676,0.0022635594941675663,0.0036043424624949694,-0.01,0.01,-2.51,12.587,2025-04-20 22:39:37.142806,6,10
20,-78.696275,35.7271225,7.07,0.003548266598954797,0.002337669488042593,0.004186062142252922,-0.01,0.01,-2.42,12.587,2025-04-20 22:39:38.143505,6,10
21,-78.696275,35.7271225,9.55,0.003233857685700059,0.0026098978705704212,0.0037285147700458765,-0.01,0.02,-2.43,12.587,2025-04-20 22:39:39.144562,6,10
22,-78.696275,35.7271225,12.058,0.0028156389016658068,0.0024437259417027235,0.0027862447313964367,-0.01,0.01,-2.43,12.587,2025-04-20 22:39:40.145433,6,10
23,-78.6962749,35.7271225,14.548,0.002912560012191534,0.0026472483295947313,0.002594218822196126,-0.01,0.01,-2.43,12.587,2025-04-20 22:39:41.145859,6,10
24,-78.6962748,35.7271225,17.049,0.0029276765417307615,0.002541051246225834,0.0021644856315106153,-0.01,0.0,-2.44,12.587,2025-04-20 22:39:42.146629,6,10
25,-78.6962748,35.7271225,19.526,0.003218499943614006,0.0026434415485709906,0.0029567016754299402,-0.01,0.0,-2.39,12.587,2025-04-20 22:39:43.147399,6,10
26,-78.6962749,35.7271225,21.73,0.0032281074672937393,0.002645581029355526,0.004224683623760939,-0.01,0.0,-1.88,12.587,2025-04-20 22:39:44.147836,6,10
27,-78.6962749,35.7271225,23.367,0.003340155119076371,0.0022802313324064016,0.004085333086550236,-0.01,0.01,-1.35,12.587,2025-04-20 22:39:45.148374,6,10
28,-78.696275,35.7271225,24.47,0.003061989089474082,0.002562789712101221,0.00421669939532876,-0.01,0.02,-0.81,12.587,2025-04-20 22:39:46.149396,6,10
29,-78.696275,35.7271225,24.99,0.003661934519186616,0.002250335179269314,0.0041494667530059814,-0.01,0.02,-0.2,12.587,2025-04-20 22:39:47.151375,6,10
30,-78.696275,35.7271225,24.973,0.0031988557893782854,0.0025799358263611794,0.0034761717543005943,-0.02,0.02,0.04,12.587,2025-04-20 22:39:48.153332,6,10
31,-78.696275,35.7271225,24.95,0.003394740866497159,0.002527466509491205,0.0034504577051848173,-0.02,0.02,-0.04,12.587,2025-04-20 22:39:49.155285,6,10
32,-78.696275,35.7271225,24.953,0.003398419823497534,0.0024475581012666225,0.0032861751969903708,-0.02,0.02,-0.04,12.587,2025-04-20 22:39:50.157235,6,10
33,-78.696275,35.7271226,24.96,0.0038647372275590897,0.03197500482201576,0.00320907449349761,-0.02,0.02,-0.04,12.587,2025-04-20 22:39:51.158784,6,10
34,-78.6962749,35.7271229,24.964,-0.19711542129516602,0.41099539399147034,-0.035915300250053406,0.3,0.09,-0.01,12.587,2025-04-20 22:39:52.159573,6,10
35,-78.6962712,35.7271367,24.963,-0.33739355206489563,0.22183173894882202,0.0016036940505728126,2.78,0.63,-0.03,12.587,2025-04-20 22:39:53.160829,6,10
36,-78.6962613,35.7271719,24.972,-0.43924546241760254,0.23305583000183105,-0.01148079615086317,5.09,1.13,-0.02,12.587,2025-04-20 22:39:54.161789,6,10
37,-78.6962462,35.7272282,24.974,-0.5652728080749512,0.31569531559944153,-0.04907664656639099,7.48,1.59,-0.01,12.587,2025-04-20 22:39:55.161945,6,10
38,-78.6962271,35.7273003,24.991,-0.36407074332237244,0.22927772998809814,0.0015571307158097625,7.97,1.72,-0.02,12.587,2025-04-20 22:39:56.162599,6,10
39,-78.6962087,35.7273697,24.99,-0.26982247829437256,0.2745230793952942,-0.005667920224368572,7.22,1.56,0.0,12.587,2025-04-20 22:39:57.163184,6,10
40,-78.6961927,35.7274306,24.99,-0.14263343811035156,0.2688293159008026,0.007824176922440529,6.03,1.33,0.0,12.587,2025-04-20 22:39:58.163420,6,10
41,-78.6961798,35.7274788,24.989,-0.025540361180901527,0.25459450483322144,0.008519564755260944,4.52,1.03,0.0,12.587,2025-04-20 22:39:59.164418,6,10
42,-78.6961704,35.7275125,24.992,0.07944601029157639,0.27122509479522705,0.008204912766814232,2.86,0.67,0.0,12.587,2025-04-20 22:40:00.165260,6,10
43,-78.6961654,35.7275302,24.996,0.15291471779346466,0.2636673152446747,0.007827007211744785,1.01,0.24,0.0,12.587,2025-04-20 22:40:01.166123,6,10
44,-78.6961645,35.7275333,24.996,0.05643944442272186,0.26354625821113586,0.0036798922810703516,-0.09,-0.01,0.0,12.587,2025-04-20 22:40:02.167831,6,10
45,-78.6961651,35.7275311,24.993,0.00018137456208933145,0.26573610305786133,0.0015760943060740829,-0.25,-0.05,0.0,12.587,2025-04-20 22:40:03.170001,6,10
46,-78.6961658,35.7275289,24.996,-0.009631679393351078,0.2634045481681824,0.002440209500491619,-0.15,-0.02,0.0,12.587,2025-04-20 22:40:04.172235,6,10
47,-78.6961662,35.7275277,24.998,-0.004650747403502464,0.6023947596549988,0.0014309281250461936,-0.06,0.0,0.0,12.587,2025-04-20 22:40:05.172649,6,10
48,-78.6961664,35.7275273,25.0,-0.0020915912464261055,2.0556068420410156,9.969508391804993e-05,-0.03,0.01,0.0,12.587,2025-04-20 22:40:06.173870,6,10
49,-78.6961664,35.7275271,25.002,-0.0022250402253121138,2.189262628555298,0.001631926279515028,-0.03,0.01,0.0,12.587,2025-04-20 22:40:07.174191,6,10
50,-78.6961665,35.727527,25.001,-0.002330683870241046,1.5967931747436523,0.0026998084504157305,-0.03,0.01,0.0,12.587,2025-04-20 22:40:08.174748,6,10
51,-78.6961665,35.7275268,25.0,-0.0014174414100125432,2.8008956909179688,0.0010636444203555584,-0.03,0.01,0.0,12.587,2025-04-20 22:40:09.175052,6,10
52,-78.6961664,35.7275267,24.999,-0.001943729817867279,-2.2279202938079834,0.0005249213427305222,-0.02,0.0,0.0,12.587,2025-04-20 22:40:10.176425,6,10
53,-78.6961663,35.7275267,24.999,-0.001407022587954998,-1.6926660537719727,-0.0003963127383030951,-0.02,0.0,0.0,12.587,2025-04-20 22:40:11.177345,6,10
54,-78.6961663,35.7275266,25.001,-0.0001637518435018137,-1.0934937000274658,5.240695463726297e-05,-0.02,0.0,0.0,12.587,2025-04-20 22:40:12.178280,6,10
55,-78.6961663,35.7275266,25.001,-0.0001276718103326857,-0.1987466663122177,-0.00017861960805021226,-0.01,0.0,0.0,12.587,2025-04-20 22:40:13.179324,6,10
56,-78.6961663,35.7275266,25.001,-6.745025893906131e-05,0.578179657459259,0.00047559430822730064,-0.01,0.0,0.0,12.587,2025-04-20 22:40:14.180764,6,10
57,-78.6961663,35.7275265,25.001,-0.0008255766006186604,-0.025945473462343216,0.0005035078502260149,-0.01,0.0,0.0,12.587,2025-04-20 22:40:15.182834,6,10
58,-78.6961663,35.7275265,25.001,-0.000984990387223661,-0.030247513204813004,0.0002169904619222507,0.0,0.0,0.0,12.587,2025-04-20 22:40:16.184840,6,10
59,-78.6961663,35.7275265,25.001,0.00027591161779128015,0.21436680853366852,0.0010216161608695984,0.0,0.0,0.0,12.587,2025-04-20 22:40:17.186340,6,10
60,-78.6961664,35.7275266,25.001,0.002004532143473625,0.016674049198627472,0.001512816408649087,-0.01,0.0,0.0,12.587,2025-04-20 22:40:18.188390,6,10
61,-78.6961665,35.7275266,25.001,0.0017112160567194223,-0.06149328872561455,0.0018120963359251618,-0.02,0.0,0.0,12.587,2025-04-20 22:40:19.188699,6,10
62,-78.6961666,35.7275266,25.001,0.0019143266836181283,-0.9174162745475769,7.997699867701158e-05,-0.02,0.01,0.0,12.587,2025-04-20 22:40:20.189027,6,10
63,-78.6961667,35.7275267,25.001,0.0023892978206276894,-0.7067609429359436,0.001185922184959054,-0.02,0.02,0.0,12.587,2025-04-20 22:40:21.189603,6,10
64,-78.6961677,35.727528,25.0,-0.29648077487945557,-0.46572306752204895,-0.016263363882899284,0.77,-0.43,0.0,12.587,2025-04-20 22:40:22.190399,6,10
65,-78.6961799,35.7275449,25.001,-0.3481983542442322,-0.7367267608642578,0.07234371453523636,2.95,-1.68,0.0,12.587,2025-04-20 22:40:23.191251,6,10
66,-78.6962052,35.7275804,25.0,-0.4736369550228119,-0.6039372086524963,0.030528144910931587,5.02,-2.88,0.0,12.587,2025-04-20 22:40:24.192433,6,10
67,-78.6962433,35.7276336,24.998,-0.42368754744529724,-0.6157650947570801,0.03147027641534805,6.51,-3.74,-0.01,12.587,2025-04-20 22:40:25.193541,6,10
68,-78.6962867,35.7276947,24.99,-0.41652441024780273,-0.6637350916862488,0.035796113312244415,6.9,-3.94,0.0,12.587,2025-04-20 22:40:26.193923,6,10
69,-78.6963319,35.7277581,24.988,-0.40795719623565674,-0.6085135340690613,0.015717629343271255,7.03,-4.08,-0.01,12.587,2025-04-20 22:40:27.194729,6,10
70,-78.6963776,35.7278216,24.992,-0.409010648727417,-0.6405925750732422,0.030109254643321037,7.06,-4.1,0.0,12.587,2025-04-20 22:40:28.195087,6,10
71,-78.6964232,35.7278852,24.993,-0.39441147446632385,-0.633135974407196,0.024462679401040077,7.04,-4.08,0.0,12.587,2025-04-20 22:40:29.195439,6,10
72,-78.6964686,35.7279484,24.994,-0.39468875527381897,-0.6263900995254517,0.024385223165154457,6.96,-4.04,0.0,12.587,2025-04-20 22:40:30.196523,6,10
73,-78.6965134,35.7280109,24.994,-0.39147210121154785,-0.6363815069198608,0.02676919288933277,6.94,-4.02,0.0,12.587,2025-04-20 22:40:31.197916,6,10
74,-78.6965581,35.7280733,24.994,-0.3948805332183838,-0.6287974119186401,0.024599207565188408,6.91,-4.01,0.0,12.587,2025-04-20 22:40:32.198469,6,10
75,-78.6966026,35.7281354,24.994,-0.391626238822937,-0.630474865436554,0.025424830615520477,6.92,-4.01,0.0,12.587,2025-04-20 22:40:33.198819,6,10
76,-78.6966471,35.7281975,24.992,-0.39799925684928894,-0.6327342987060547,0.02650049515068531,6.91,-4.0,0.0,12.587,2025-04-20 22:40:34.199130,6,10
77,-78.6966914,35.7282595,24.992,-0.3970639109611511,-0.630670428276062,0.026504933834075928,6.94,-4.01,0.0,12.587,2025-04-20 22:40:35.200731,6,10
78,-78.6967361,35.7283219,24.994,-0.39498865604400635,-0.6326521039009094,0.026860302314162254,6.92,-4.0,0.0,12.587,2025-04-20 22:40:36.201272,6,10
79,-78.6967806,35.728384,24.994,-0.3927939236164093,-0.6316123008728027,0.02622513473033905,6.92,-4.01,0.0,12.587,2025-04-20 22:40:37.201851,6,10
80,-78.6968252,35.7284464,24.995,-0.39563995599746704,-0.6300071477890015,0.026396969333291054,6.89,-3.99,0.0,12.587,2025-04-20 22:40:38.202124,6,10
81,-78.6968695,35.7285082,24.994,-0.3962230086326599,-0.6318041682243347,0.027525538578629494,6.92,-4.0,0.0,12.587,2025-04-20 22:40:39.203154,6,10
82,-78.6969141,35.7285705,24.995,-0.39401379227638245,-0.6310265064239502,0.02618941105902195,6.9,-3.99,0.0,12.587,2025-04-20 22:40:40.204335,6,10
83,-78.6969585,35.7286325,24.994,-0.39461708068847656,-0.6313130855560303,0.026619339361786842,6.91,-4.0,0.0,12.587,2025-04-20 22:40:41.204630,6,10
84,-78.6970031,35.7286948,24.994,-0.3921482264995575,-0.631031334400177,0.026727287098765373,6.9,-3.99,0.0,12.587,2025-04-20 22:40:42.206738,6,10
85,-78.6970475,35.7287568,24.994,-0.3971824645996094,-0.6312255263328552,0.02723505347967148,6.91,-4.0,0.0,12.587,2025-04-20 22:40:43.207187,6,10
86,-78.6970921,35.7288191,24.995,-0.39199593663215637,-0.6310595273971558,0.02696525678038597,6.89,-3.99,0.0,12.587,2025-04-20 22:40:44.207832,6,10
87,-78.6971365,35.7288811,24.995,-0.3963649868965149,-0.631223201751709,0.027308382093906403,6.91,-4.0,0.0,12.587,2025-04-20 22:40:45.209031,6,10
88,-78.697181,35.7289433,24.995,-0.39176708459854126,-0.631385862827301,0.026559904217720032,6.91,-4.0,0.0,12.587,2025-04-20 22:40:46.209789,6,10
89,-78.6972256,35.7290055,24.995,-0.39321163296699524,-0.6311604380607605,0.027272431179881096,6.9,-3.99,0.0,12.587,2025-04-20 22:40:47.210648,6,10
90,-78.6972701,35.7290677,24.995,-0.3906722366809845,-0.6310262084007263,0.026819603517651558,6.88,-3.99,0.0,12.587,2025-04-20 22:40:48.211160,6,10
91,-78.6973143,35.7291294,24.995,-0.39974889159202576,-0.6310057044029236,0.02823438122868538,6.91,-4.0,0.0,12.587,2025-04-20 22:40:49.211955,6,10
92,-78.6973589,35.7291917,24.996,-0.391813188791275,-0.6310111284255981,0.026971889659762383,6.92,-4.0,0.0,12.587,2025-04-20 22:40:50.213432,6,10
93,-78.6974035,35.729254,24.996,-0.39480629563331604,-0.6312282085418701,0.028086094185709953,6.91,-3.99,0.0,12.587,2025-04-20 22:40:51.214123,6,10
94,-78.697448,35.7293162,24.997,-0.3911636173725128,-0.6308265328407288,0.026839664205908775,6.9,-3.99,0.0,12.587,2025-04-20 22:40:52.214598,6,10
95,-78.6974925,35.7293783,24.997,-0.39400485157966614,-0.6310294270515442,0.027365414425730705,6.89,-3.99,0.0,12.587,2025-04-20 22:40:53.215318,6,10
96,-78.697537,35.7294405,24.996,-0.3877702057361603,-0.6312332153320312,0.026885496452450752,6.9,-3.99,0.0,12.587,2025-04-20 22:40:54.216221,6,10
97,-78.6975813,35.7295024,24.995,-0.39722609519958496,-0.6313462853431702,0.028189968317747116,6.9,-3.99,0.0,12.587,2025-04-20 22:40:55.216898,6,10
98,-78.6976257,35.7295644,24.996,-0.3936254680156708,-0.6312099695205688,0.02796611189842224,6.92,-4.0,0.0,12.587,2025-04-20 22:40:56.217651,6,10
99,-78.6976704,35.7296268,24.998,-0.39435532689094543,-0.6313674449920654,0.027647627517580986,6.91,-4.0,0.0,12.587,2025-04-20 22:40:57.218738,6,10
100,-78.6977149,35.729689,24.997,-0.3893316984176636,-0.6311394572257996,0.027023283764719963,6.91,-4.0,0.0,12.587,2025-04-20 22:40:58.218953,6,10
101,-78.6977594,35.7297511,24.995,-0.3958916962146759,-0.6312429904937744,0.028060324490070343,6.89,-3.99,0.0,12.587,2025-04-20 22:40:59.219587,6,10
102,-78.6978037,35.729813,24.995,-0.3954991400241852,-0.6311900615692139,0.02823094092309475,6.92,-4.0,0.0,12.587,2025-04-20 22:41:00.220693,6,10
103,-78.6978484,35.7298754,24.996,-0.39394304156303406,-0.6307695508003235,0.027843208983540535,6.91,-4.0,0.0,12.587,2025-04-20 22:41:01.221552,6,10
104,-78.6978928,35.7299374,24.998,-0.3924945294857025,-0.6303896307945251,0.027437500655651093,6.91,-4.0,0.0,12.587,2025-04-20 22:41:02.222463,6,10
105,-78.6979375,35.7299998,24.996,-0.3929475247859955,-0.6318075060844421,0.028349027037620544,6.88,-3.98,0.0,12.587,2025-04-20 22:41:03.223870,6,10
106,-78.6979816,35.7300615,24.995,-0.3761913776397705,-0.6301364302635193,0.025693921372294426,6.9,-3.99,0.0,12.587,2025-04-20 22:41:04.224813,6,10
107,-78.6980242,35.730121,24.999,-0.237434521317482,-0.6279297471046448,0.011632905341684818,6.16,-3.57,0.0,12.587,2025-04-20 22:41:05.225655,6,10
108,-78.6980606,35.7301719,24.992,-0.13347719609737396,-0.627385139465332,0.004052532371133566,5.1,-2.96,0.0,12.587,2025-04-20 22:41:06.226764,6,10
109,-78.6980898,35.7302126,24.989,-0.024476798251271248,-0.6274799108505249,-0.0036495616659522057,3.85,-2.25,0.0,12.587,2025-04-20 22:41:07.227388,6,10
110,-78.6981105,35.7302414,24.992,0.07659129798412323,-0.6275906562805176,-0.009240997023880482,2.45,-1.44,0.0,12.587,2025-04-20 22:41:08.228404,6,10
111,-78.6981213,35.7302565,24.995,0.14932550489902496,-0.6289680004119873,-0.01453488226979971,0.85,-0.5,0.0,12.587,2025-04-20 22:41:09.230292,6,10
112,-78.6981232,35.7302591,24.997,0.05710456147789955,-0.6272101402282715,-0.004507651552557945,-0.1,0.06,0.0,12.587,2025-04-20 22:41:10.232557,6,10
113,-78.6981218,35.7302571,24.994,0.00048652361147105694,-0.6280329823493958,0.0018512766109779477,-0.24,0.15,0.0,12.587,2025-04-20 22:41:11.234575,6,10
114,-78.6981205,35.7302549,24.997,-0.009143508039414883,-0.6283366084098816,0.004963414277881384,-0.13,0.1,0.0,12.587,2025-04-20 22:41:12.235836,6,10
115,-78.6981198,35.7302538,24.999,-0.006078966893255711,-0.1540910303592682,0.0028301402926445007,-0.04,0.07,0.0,12.587,2025-04-20 22:41:13.236741,6,10
116,-78.6981196,35.7302534,25.001,-0.003871695837005973,1.3149586915969849,-0.0009813000215217471,-0.01,0.06,0.0,12.587,2025-04-20 22:41:14.237136,6,10
117,-78.6981193,35.7302533,25.001,-0.0025260476395487785,1.9643034934997559,0.00041926998528651893,-0.01,0.06,0.0,12.587,2025-04-20 22:41:15.237912,6,10
118,-78.698119,35.7302533,25.001,-0.0020631614606827497,2.816282033920288,-0.0002393668401055038,-0.01,0.05,0.0,12.587,2025-04-20 22:41:16.239120,6,10
119,-78.6981188,35.7302532,25.001,-0.0011855664197355509,-2.808716058731079,-1.0435971489641815e-05,-0.02,0.03,0.0,12.587,2025-04-20 22:41:17.239800,6,10
120,-78.6981186,35.730253,25.001,-0.0007776737329550087,-1.6954662799835205,-0.0002880422689486295,-0.02,0.01,0.0,12.587,2025-04-20 22:41:18.240125,6,10
121,-78.6981185,35.7302529,25.002,-0.0009943534387275577,-1.944300889968872,0.0008390314178541303,-0.01,0.0,0.0,12.587,2025-04-20 22:41:19.240874,6,10
122,-78.6981184,35.7302528,25.004,-6.822774594184011e-05,-2.1401190757751465,0.0013098000781610608,0.0,0.0,0.0,12.587,2025-04-20 22:41:20.242036,6,10
123,-78.6981184,35.7302528,25.004,-0.001196343102492392,-0.6854573488235474,0.0008439167286269367,0.0,0.0,0.0,12.587,2025-04-20 22:41:21.242647,6,10
124,-78.6981184,35.7302527,25.004,-0.0012018070556223392,-0.01403103582561016,0.0003870657237712294,0.01,0.0,0.0,12.587,2025-04-20 22:41:22.243490,6,10
125,-78.6981184,35.7302527,25.003,-0.0007255449309013784,-0.8325268030166626,0.0009700673399493098,0.01,0.0,0.0,12.587,2025-04-20 22:41:23.244523,6,10
126,-78.6981184,35.7302527,25.002,-0.00015618778706993908,-0.6288031339645386,0.0012737450888380408,0.01,0.0,0.0,12.587,2025-04-20 22:41:24.246398,6,10
127,-78.6981186,35.7302527,25.003,0.00032323115738108754,-0.4187913239002228,0.0026069979649037123,0.01,0.01,0.0,12.587,2025-04-20 22:41:25.248219,6,10
128,-78.6981187,35.7302527,25.004,0.0009381133131682873,-0.6569256782531738,0.00225323298946023,0.0,0.02,0.0,12.587,2025-04-20 22:41:26.250504,6,10
129,-78.6981187,35.7302527,25.004,0.0011568363988772035,-0.5347490906715393,0.0018190377159044147,0.0,0.02,0.0,12.587,2025-04-20 22:41:27.251834,6,10
130,-78.6981187,35.7302528,25.002,0.0016408383380621672,-0.5670375823974609,0.001749880611896515,0.0,0.02,0.0,12.587,2025-04-20 22:41:28.252465,6,10
131,-78.6981188,35.7302529,25.002,0.0025080214254558086,-1.6492642164230347,-0.0014141303254291415,0.0,0.03,0.0,12.587,2025-04-20 22:41:29.253558,6,10
132,-78.6981189,35.7302527,25.001,-0.1783038228750229,-2.971341848373413,0.0636059045791626,-0.27,-0.11,0.0,12.587,2025-04-20 22:41:30.254053,6,10
133,-78.6981274,35.7302409,25.001,-0.3370791971683502,-2.6989705562591553,0.027441784739494324,-2.44,-1.4,0.0,12.587,2025-04-20 22:41:31.254989,6,10
134,-78.6981495,35.7302098,25.002,-0.42573484778404236,-2.3439688682556152,-0.09831627458333969,-4.5,-2.58,0.0,12.587,2025-04-20 22:41:32.255291,6,10
135,-78.6981849,35.7301603,25.0,-0.44126075506210327,-2.687051773071289,0.04218829795718193,-6.26,-3.72,-0.01,12.587,2025-04-20 22:41:33.256084,6,10
136,-78.6982285,35.7301009,24.997,-0.41658538579940796,-2.5359952449798584,-0.026698803529143333,-6.72,-4.0,0.0,12.587,2025-04-20 22:41:34.256574,6,10
137,-78.6982736,35.7300384,24.991,-0.41842740774154663,-2.5318386554718018,-0.010754084214568138,-6.99,-4.09,0.0,12.587,2025-04-20 22:41:35.257155,6,10
138,-78.6983198,35.729975,24.993,-0.40971454977989197,-2.6034584045410156,0.004320921842008829,-7.01,-4.19,0.0,12.587,2025-04-20 22:41:36.257828,6,10
139,-78.6983662,35.7299116,24.995,-0.40290671586990356,-2.535460948944092,-0.018738213926553726,-7.01,-4.13,0.0,12.587,2025-04-20 22:41:37.259024,6,10
140,-78.6984121,35.7298483,24.997,-0.3929578959941864,-2.5693135261535645,-0.0029747707303613424,-6.95,-4.09,0.0,12.587,2025-04-20 22:41:38.260114,6,10
141,-78.6984574,35.729786,24.998,-0.39835599064826965,-2.5666606426239014,-0.007608316373080015,-6.9,-4.07,0.0,12.587,2025-04-20 22:41:39.260462,6,10
142,-78.6985025,35.7297239,24.998,-0.3946326673030853,-2.553818464279175,-0.009134420193731785,-6.88,-4.05,0.0,12.587,2025-04-20 22:41:40.261649,6,10
143,-78.6985473,35.7296621,24.998,-0.4025154709815979,-2.5670056343078613,-0.004939963109791279,-6.89,-4.07,0.0,12.587,2025-04-20 22:41:41.262565,6,10
144,-78.6985923,35.7296001,24.997,-0.39703506231307983,-2.5604195594787598,-0.006968908477574587,-6.89,-4.07,0.0,12.587,2025-04-20 22:41:42.263528,6,10
145,-78.6986374,35.729538,24.996,-0.39857837557792664,-2.560931444168091,-0.0059585231356322765,-6.88,-4.06,0.0,12.587,2025-04-20 22:41:43.264122,6,10
146,-78.6986825,35.7294759,24.996,-0.39059925079345703,-2.564063787460327,-0.005347855854779482,-6.87,-4.06,0.0,12.587,2025-04-20 22:41:44.264555,6,10
147,-78.6987275,35.729414,24.997,-0.39944884181022644,-2.5609796047210693,-0.006702784914523363,-6.86,-4.05,0.0,12.587,2025-04-20 22:41:45.264920,6,10
148,-78.6987723,35.7293523,24.997,-0.3953021168708801,-2.5632107257843018,-0.0058500212617218494,-6.88,-4.07,0.0,12.587,2025-04-20 22:41:46.265746,6,10
149,-78.6988173,35.7292902,24.996,-0.398683100938797,-2.5621533393859863,-0.005495223682373762,-6.87,-4.06,0.0,12.587,2025-04-20 22:41:47.266554,6,10
150,-78.6988623,35.7292283,24.997,-0.393240362405777,-2.5621378421783447,-0.005747818388044834,-6.88,-4.07,0.0,12.587,2025-04-20 22:41:48.267176,6,10
151,-78.6989075,35.7291661,24.998,-0.3949943482875824,-2.5622639656066895,-0.006040999665856361,-6.85,-4.05,0.0,12.587,2025-04-20 22:41:49.268216,6,10
152,-78.6989524,35.7291043,24.998,-0.39209991693496704,-2.5609829425811768,-0.00669502466917038,-6.86,-4.05,0.0,12.587,2025-04-20 22:41:50.269030,6,10
153,-78.6989972,35.7290427,24.996,-0.40120917558670044,-2.5629830360412598,-0.006221290677785873,-6.85,-4.05,0.0,12.587,2025-04-20 22:41:51.270087,6,10
154,-78.6990419,35.7289811,24.995,-0.4003596305847168,-2.56225323677063,-0.006239322479814291,-6.89,-4.07,0.0,12.587,2025-04-20 22:41:52.270426,6,10
155,-78.6990871,35.7289187,24.997,-0.39679133892059326,-2.561591148376465,-0.005240230821073055,-6.88,-4.06,0.0,12.587,2025-04-20 22:41:53.271339,6,10
156,-78.6991321,35.7288568,24.998,-0.394133061170578,-2.5620505809783936,-0.005618300288915634,-6.86,-4.06,0.0,12.587,2025-04-20 22:41:54.271838,6,10
157,-78.6991772,35.7287948,24.998,-0.3947860598564148,-2.562272548675537,-0.006539305206388235,-6.84,-4.04,0.0,12.587,2025-04-20 22:41:55.273488,6,10
158,-78.699222,35.7287332,24.996,-0.3976936340332031,-2.562053918838501,-0.006326889153569937,-6.86,-4.05,0.0,12.587,2025-04-20 22:41:56.273930,6,10
159,-78.6992668,35.7286714,24.996,-0.3998706638813019,-2.5625905990600586,-0.005594455171376467,-6.87,-4.05,0.0,12.587,2025-04-20 22:41:57.274950,6,10
160,-78.6993118,35.7286094,24.998,-0.3989723324775696,-2.5619521141052246,-0.006088017486035824,-6.88,-4.06,0.0,12.587,2025-04-20 22:41:58.276163,6,10
161,-78.699357,35.7285473,24.998,-0.39435461163520813,-2.56209135055542,-0.0058699725195765495,-6.86,-4.05,0.0,12.587,2025-04-20 22:41:59.277305,6,10
162,-78.6994019,35.7284854,24.998,-0.3977278172969818,-2.562218427658081,-0.005887787789106369,-6.86,-4.05,0.0,12.587,2025-04-20 22:42:00.278056,6,10
163,-78.6994468,35.7284236,24.997,-0.3964430093765259,-2.5622518062591553,-0.006459253374487162,-6.86,-4.05,0.0,12.587,2025-04-20 22:42:01.278726,6,10
164,-78.6994917,35.7283618,24.996,-0.4001373052597046,-2.5619943141937256,-0.005661888513714075,-6.88,-4.06,0.0,12.587,2025-04-20 22:42:02.279211,6,10
165,-78.6995367,35.7282997,24.998,-0.39530521631240845,-2.5620334148406982,-0.005652466788887978,-6.87,-4.06,0.0,12.587,2025-04-20 22:42:03.279960,6,10
166,-78.6995817,35.7282378,24.998,-0.3978481888771057,-2.5618395805358887,-0.006365066859871149,-6.87,-4.05,0.0,12.587,2025-04-20 22:42:04.280386,6,10
167,-78.6996269,35.7281757,24.998,-0.3917640447616577,-2.562540292739868,-0.005532032810151577,-6.85,-4.05,0.0,12.587,2025-04-20 22:42:05.281068,6,10
168,-78.6996716,35.7281141,24.997,-0.4013681411743164,-2.5620040893554688,-0.006368203088641167,-6.86,-4.05,0.0,12.587,2025-04-20 22:42:06.281917,6,10
169,-78.6997165,35.7280523,24.996,-0.39595136046409607,-2.5622658729553223,-0.006134325172752142,-6.88,-4.06,0.0,12.587,2025-04-20 22:42:07.283114,6,10
170,-78.6997615,35.7279903,24.998,-0.39925718307495117,-2.562070846557617,-0.0058060274459421635,-6.88,-4.06,0.0,12.587,2025-04-20 22:42:08.283482,6,10
171,-78.6998066,35.7279282,24.999,-0.3905755281448364,-2.5627126693725586,-0.004972977563738823,-6.87,-4.05,0.0,12.587,2025-04-20 22:42:09.284626,6,10
172,-78.6998516,35.7278662,24.998,-0.3956551253795624,-2.5614876747131348,-0.006397937424480915,-6.85,-4.04,0.0,12.587,2025-04-20 22:42:10.285798,6,10
173,-78.6998965,35.7278045,24.997,-0.3939419686794281,-2.56091570854187,-0.0060198064893484116,-6.86,-4.05,0.0,12.587,2025-04-20 22:42:11.287911,6,10
174,-78.6999413,35.7277427,24.996,-0.4011788070201874,-2.5627198219299316,-0.006186821032315493,-6.87,-4.06,0.0,12.587,2025-04-20 22:42:12.288510,6,10
175,-78.6999862,35.7276809,24.998,-0.39593595266342163,-2.5618703365325928,-0.0061578769236803055,-6.89,-4.07,0.0,12.587,2025-04-20 22:42:13.289504,6,10
176,-78.7000315,35.7276186,24.998,-0.3957991302013397,-2.5623698234558105,-0.005907644517719746,-6.86,-4.05,0.0,12.587,2025-04-20 22:42:14.290189,6,10
177,-78.7000764,35.7275568,24.998,-0.39191991090774536,-2.561760902404785,-0.005817815195769072,-6.87,-4.05,0.0,12.587,2025-04-20 22:42:15.291924,6,10
178,-78.7001202,35.7274964,25.001,-0.26156049966812134,-2.562987804412842,0.00025644482229836285,-6.3,-3.72,0.0,12.587,2025-04-20 22:42:16.292428,6,10
179,-78.7001585,35.7274439,24.994,-0.15787231922149658,-2.5626306533813477,0.0009197659092023969,-5.3,-3.14,0.0,12.587,2025-04-20 22:42:17.293077,6,10
180,-78.7001897,35.7274013,24.99,-0.050284355878829956,-2.5626611709594727,0.0014978913823142648,-4.11,-2.42,0.0,12.587,2025-04-20 22:42:18.293646,6,10
181,-78.7002125,35.7273701,24.992,0.05455706641077995,-2.562145709991455,0.0033200609032064676,-2.77,-1.62,0.0,12.587,2025-04-20 22:42:19.294552,6,10
182,-78.7002257,35.7273519,24.995,0.15620693564414978,-2.561954975128174,0.0070454697124660015,-1.19,-0.68,0.0,12.587,2025-04-20 22:42:20.296157,6,10
183,-78.7002291,35.7273471,25.0,0.07805990427732468,-2.5618271827697754,0.0030823484994471073,-0.01,0.01,0.0,12.587,2025-04-20 22:42:21.298364,6,10
184,-78.7002278,35.7273487,24.998,0.008128706365823746,-2.5621588230133057,0.0011459074448794127,0.25,0.16,0.0,12.587,2025-04-20 22:42:22.300456,6,10
185,-78.7002259,35.7273508,24.997,-0.009065142832696438,-2.5623860359191895,0.002413663547486067,0.18,0.1,0.0,12.587,2025-04-20 22:42:23.302485,6,10
186,-78.7002248,35.727352,24.999,-0.006241810042411089,-2.3810503482818604,0.0028791341464966536,0.09,0.03,0.0,12.587,2025-04-20 22:42:24.302836,6,10
187,-78.7002243,35.7273525,25.001,-0.003440083237364888,-1.0183916091918945,-0.0008965344168245792,0.06,0.0,0.0,12.587,2025-04-20 22:42:25.303964,6,10
188,-78.7002242,35.7273527,25.001,-0.0022700540721416473,-0.11638423055410385,-9.707079880172387e-05,0.05,0.0,0.0,12.587,2025-04-20 22:42:26.305220,6,10
189,-78.7002242,35.7273529,25.001,-0.0017561493441462517,0.6354026794433594,-0.0006162368226796389,0.04,0.0,0.0,12.587,2025-04-20 22:42:27.305716,6,10
190,-78.7002242,35.7273531,25.001,-0.0007361937314271927,1.1724473237991333,-0.00046267829020507634,0.04,0.0,0.0,12.587,2025-04-20 22:42:28.306515,6,10
191,-78.7002242,35.7273533,25.001,-0.00030765903647989035,2.3530514240264893,-0.0004803585179615766,0.03,0.0,0.0,12.587,2025-04-20 22:42:29.308419,6,10
192,-78.7002242,35.7273535,25.001,-0.0014509806642308831,2.554097890853882,-0.00013869271788280457,0.01,0.0,0.0,12.587,2025-04-20 22:42:30.309407,6,10
193,-78.7002241,35.7273536,25.002,-0.0002466845908202231,2.002894401550293,0.0008391108131036162,0.0,0.01,0.0,12.587,2025-04-20 22:42:31.310367,6,10
194,-78.700224,35.7273536,25.002,-0.00044836499728262424,3.0926928520202637,0.0014198957942426205,0.0,0.0,0.0,12.587,2025-04-20 22:42:32.311090,6,10
195,-78.7002238,35.7273536,25.004,-0.002047837944701314,-1.9084545373916626,0.0007221241830848157,0.0,0.0,0.0,12.587,2025-04-20 22:42:33.311635,6,10
196,-78.7002238,35.7273536,25.004,-0.0006565683288499713,-2.6084821224212646,0.0014361640205606818,0.0,-0.01,0.0,12.587,2025-04-20 22:42:34.312480,6,10
197,-78.7002238,35.7273536,25.002,-7.195377111202106e-05,-2.7537484169006348,0.0010604121489450336,0.0,-0.01,0.0,12.587,2025-04-20 22:42:35.314432,6,10
198,-78.7002238,35.7273535,25.001,0.0003007108753081411,-2.381075620651245,0.001596522517502308,0.0,-0.01,0.0,12.587,2025-04-20 22:42:36.315766,6,10
199,-78.7002238,35.7273534,25.003,0.0012375799706205726,-2.624927520751953,0.0017858276842162013,0.01,-0.01,0.0,12.587,2025-04-20 22:42:37.319237,6,10
200,-78.7002238,35.7273533,25.004,0.0017679310403764248,-2.515530824661255,0.0022064088843762875,0.02,-0.01,0.0,12.587,2025-04-20 22:42:38.320538,6,10
201,-78.7002239,35.7273533,25.002,0.0022679204121232033,-2.5070552825927734,0.0018676032777875662,0.03,0.0,0.0,12.587,2025-04-20 22:42:39.320976,6,10
202,-78.7002239,35.7273533,25.002,0.0022743521258234978,3.0118939876556396,-0.0001201852792291902,0.03,0.0,0.0,12.587,2025-04-20 22:42:40.321839,6,10
203,-78.7002239,35.7273533,25.002,0.0006133148563094437,1.607670783996582,-0.001933933119289577,0.03,0.0,0.0,12.587,2025-04-20 22:42:41.322367,6,10
204,-78.7002239,35.7273533,25.001,0.0009492231183685362,1.9089380502700806,-0.0015443061711266637,0.03,0.0,0.0,12.587,2025-04-20 22:42:42.323151,6,10
205,-78.7002229,35.7273529,25.0,-0.27279749512672424,2.3402514457702637,-0.04969441518187523,-0.34,0.55,0.0,12.587,2025-04-20 22:42:43.323383,6,10
206,-78.7002051,35.7273434,25.002,-0.3410460650920868,1.9306586980819702,0.07828939706087112,-1.78,2.67,0.0,12.587,2025-04-20 22:42:44.324116,6,10
207,-78.7001647,35.7273215,25.002,-0.45859992504119873,2.0617754459381104,0.03834642097353935,-3.12,4.62,0.0,12.587,2025-04-20 22:42:45.324713,6,10
208,-78.7001033,35.7272883,25.001,-0.4300353527069092,2.1106669902801514,0.021269217133522034,-4.14,6.18,-0.01,12.587,2025-04-20 22:42:46.325256,6,10
209,-78.7000317,35.7272492,24.994,-0.4174773395061493,2.0060672760009766,0.04547348618507385,-4.46,6.55,0.0,12.587,2025-04-20 22:42:47.325570,6,10
210,-78.6999572,35.7272085,24.99,-0.4139232337474823,2.0901265144348145,0.011071212589740753,-4.54,6.77,-0.01,12.587,2025-04-20 22:42:48.325797,6,10
211,-78.699881,35.7271672,24.993,-0.4040972888469696,2.0554208755493164,0.027775758877396584,-4.52,6.78,0.0,12.587,2025-04-20 22:42:49.326718,6,10
212,-78.6998059,35.7271265,24.996,-0.3958088755607605,2.0519490242004395,0.02494650147855282,-4.51,6.75,0.0,12.587,2025-04-20 22:42:50.327835,6,10
213,-78.6997309,35.7270858,24.997,-0.3942925035953522,2.071265459060669,0.020830063149333,-4.46,6.69,0.0,12.587,2025-04-20 22:42:51.328562,6,10
214,-78.6996571,35.7270458,24.998,-0.3939024806022644,2.054171562194824,0.02715437114238739,-4.45,6.66,0.0,12.587,2025-04-20 22:42:52.328953,6,10
215,-78.6995834,35.7270059,24.998,-0.39802002906799316,2.0615952014923096,0.023732556030154228,-4.45,6.65,0.0,12.587,2025-04-20 22:42:53.329680,6,10
216,-78.6995098,35.7269659,24.998,-0.398650199174881,2.061692953109741,0.025225110352039337,-4.46,6.67,0.0,12.587,2025-04-20 22:42:54.330669,6,10
217,-78.6994358,35.7269257,24.999,-0.3925991356372833,2.059180736541748,0.024980586022138596,-4.45,6.64,0.0,12.587,2025-04-20 22:42:55.331288,6,10
218,-78.699362,35.7268857,24.996,-0.39456671476364136,2.062427043914795,0.0250077024102211,-4.44,6.64,0.0,12.587,2025-04-20 22:42:56.332162,6,10
219,-78.6992884,35.7268458,24.996,-0.3919399678707123,2.0600149631500244,0.025357607752084732,-4.44,6.63,0.0,12.587,2025-04-20 22:42:57.332552,6,10
220,-78.6992149,35.7268058,24.995,-0.39493075013160706,2.0593631267547607,0.025978896766901016,-4.44,6.63,0.0,12.587,2025-04-20 22:42:58.333868,6,10
221,-78.6991412,35.7267658,24.997,-0.39187878370285034,2.0609984397888184,0.024691389873623848,-4.43,6.61,0.0,12.587,2025-04-20 22:42:59.334697,6,10
222,-78.699068,35.7267261,24.998,-0.39853304624557495,2.0600035190582275,0.025961946696043015,-4.45,6.63,0.0,12.587,2025-04-20 22:43:00.335399,6,10
223,-78.6989942,35.726686,24.999,-0.3925817906856537,2.0609045028686523,0.025183169171214104,-4.45,6.63,0.0,12.587,2025-04-20 22:43:01.335852,6,10
224,-78.6989206,35.7266461,24.997,-0.39587700366973877,2.0597286224365234,0.026624221354722977,-4.44,6.63,0.0,12.587,2025-04-20 22:43:02.336185,6,10
225,-78.6988471,35.7266061,24.996,-0.3940655589103699,2.0608112812042236,0.02536429837346077,-4.44,6.63,0.0,12.587,2025-04-20 22:43:03.337945,6,10
226,-78.6987736,35.7265662,24.996,-0.397670179605484,2.060136318206787,0.0259421244263649,-4.45,6.64,0.0,12.587,2025-04-20 22:43:04.339058,6,10
227,-78.6986997,35.7265261,24.998,-0.38977324962615967,2.0605976581573486,0.024932369589805603,-4.45,6.63,0.0,12.587,2025-04-20 22:43:05.339951,6,10
228,-78.6986261,35.7264862,24.999,-0.39441314339637756,2.0603206157684326,0.025901049375534058,-4.43,6.62,0.0,12.587,2025-04-20 22:43:06.340838,6,10
229,-78.6985526,35.7264463,24.998,-0.39122945070266724,2.0602610111236572,0.0261114239692688,-4.44,6.63,0.0,12.587,2025-04-20 22:43:07.341131,6,10
230,-78.698479,35.7264063,24.996,-0.39676177501678467,2.0604164600372314,0.025970954447984695,-4.44,6.62,0.0,12.587,2025-04-20 22:43:08.342244,6,10
231,-78.6984055,35.7263664,24.997,-0.38985252380371094,2.0608181953430176,0.02548849582672119,-4.45,6.64,0.0,12.587,2025-04-20 22:43:09.343011,6,10
232,-78.6983318,35.7263263,24.998,-0.3957163691520691,2.0601372718811035,0.02664746530354023,-4.44,6.62,0.0,12.587,2025-04-20 22:43:10.344167,6,10
233,-78.6982585,35.7262865,24.998,-0.39394262433052063,2.060495615005493,0.02603450044989586,-4.45,6.64,0.0,12.587,2025-04-20 22:43:11.345402,6,10
234,-78.6981845,35.7262464,24.998,-0.3928506076335907,2.060497283935547,0.025572912767529488,-4.44,6.63,0.0,12.587,2025-04-20 22:43:12.346452,6,10
235,-78.698111,35.7262065,24.996,-0.39139965176582336,2.061305284500122,0.02556043304502964,-4.44,6.63,0.0,12.587,2025-04-20 22:43:13.347097,6,10
236,-78.6980375,35.7261666,24.996,-0.3969612717628479,2.0594403743743896,0.026783620938658714,-4.43,6.61,0.0,12.587,2025-04-20 22:43:14.348927,6,10
237,-78.6979643,35.7261269,24.998,-0.39699578285217285,2.061278820037842,0.02636081725358963,-4.46,6.65,0.0,12.587,2025-04-20 22:43:15.349255,6,10
238,-78.6978903,35.7260866,24.998,-0.39352482557296753,2.0599682331085205,0.02656097710132599,-4.45,6.63,0.0,12.587,2025-04-20 22:43:16.349537,6,10
239,-78.6978168,35.7260468,24.998,-0.39302968978881836,2.061091899871826,0.02570621855556965,-4.44,6.63,0.0,12.587,2025-04-20 22:43:17.350689,6,10
240,-78.6977431,35.7260067,24.996,-0.39260804653167725,2.060103416442871,0.025843190029263496,-4.43,6.62,0.0,12.587,2025-04-20 22:43:18.352726,6,10
241,-78.6976697,35.7259668,24.995,-0.3934504985809326,2.0595998764038086,0.02614816650748253,-4.44,6.63,0.0,12.587,2025-04-20 22:43:19.353029,6,10
242,-78.697596,35.7259269,24.998,-0.3950200080871582,2.0609140396118164,0.026276450604200363,-4.43,6.61,0.0,12.587,2025-04-20 22:43:20.353878,6,10
243,-78.6975227,35.725887,24.998,-0.39774811267852783,2.059915542602539,0.026849133893847466,-4.45,6.64,0.0,12.587,2025-04-20 22:43:21.354526,6,10
244,-78.697449,35.7258471,24.999,-0.3937477767467499,2.0607240200042725,0.02563316747546196,-4.45,6.64,0.0,12.587,2025-04-20 22:43:22.355038,6,10
245,-78.6973753,35.725807,24.996,-0.39495834708213806,2.059884786605835,0.02603411115705967,-4.45,6.64,0.0,12.587,2025-04-20 22:43:23.355933,6,10
246,-78.6973015,35.725767,24.996,-0.39073923230171204,2.0606894493103027,0.025500793009996414,-4.43,6.62,0.0,12.587,2025-04-20 22:43:24.356464,6,10
247,-78.6972283,35.7257272,24.996,-0.3976828157901764,2.0600855350494385,0.026652630418539047,-4.44,6.63,0.0,12.587,2025-04-20 22:43:25.357017,6,10
248,-78.6971545,35.7256872,24.998,-0.3921619653701782,2.0607399940490723,0.02568514086306095,-4.44,6.63,0.0,12.587,2025-04-20 22:43:26.358025,6,10
249,-78.697081,35.7256472,24.998,-0.39622026681900024,2.059863328933716,0.026287725195288658,-4.44,6.63,0.0,12.587,2025-04-20 22:43:27.358294,6,10
250,-78.6970074,35.7256073,24.998,-0.392076313495636,2.0608322620391846,0.025407129898667336,-4.44,6.63,0.0,12.587,2025-04-20 22:43:28.358741,6,10
251,-78.6969339,35.7255674,24.997,-0.3975553512573242,2.0599913597106934,0.02661372721195221,-4.44,6.63,0.0,12.587,2025-04-20 22:43:29.359160,6,10
252,-78.6968601,35.7255273,24.996,-0.38844621181488037,2.060987949371338,0.02564694732427597,-4.44,6.63,0.0,12.587,2025-04-20 22:43:30.359580,6,10
253,-78.6967866,35.7254874,24.997,-0.39622366428375244,2.059804916381836,0.026700854301452637,-4.44,6.63,0.0,12.587,2025-04-20 22:43:31.360173,6,10
254,-78.6967131,35.7254475,24.998,-0.39240118861198425,2.0608654022216797,0.02585132233798504,-4.45,6.64,0.0,12.587,2025-04-20 22:43:32.361162,6,10
255,-78.6966393,35.7254074,24.999,-0.39335381984710693,2.060159683227539,0.025929026305675507,-4.44,6.63,0.0,12.587,2025-04-20 22:43:33.361897,6,10
256,-78.6965657,35.7253675,24.997,-0.38926976919174194,2.0610525608062744,0.02532782591879368,-4.44,6.63,0.0,12.587,2025-04-20 22:43:34.362913,6,10
257,-78.6964923,35.7253276,24.995,-0.39788398146629333,2.0598042011260986,0.026718826964497566,-4.43,6.62,0.0,12.587,2025-04-20 22:43:35.363849,6,10
258,-78.696419,35.7252878,24.997,-0.3933102786540985,2.0607099533081055,0.026151180267333984,-4.46,6.65,0.0,12.587,2025-04-20 22:43:36.364131,6,10
259,-78.696345,35.7252476,24.998,-0.3939475119113922,2.060269594192505,0.026240944862365723,-4.44,6.63,0.0,12.587,2025-04-20 22:43:37.364717,6,10
260,-78.6962715,35.7252077,24.998,-0.3919541537761688,2.061185836791992,0.025624971836805344,-4.44,6.63,0.0,12.587,2025-04-20 22:43:38.365058,6,10
261,-78.6961977,35.7251677,24.998,-0.3931010663509369,2.060178518295288,0.025814982131123543,-4.43,6.62,0.0,12.587,2025-04-20 22:43:39.365933,6,10
262,-78.6961243,35.7251278,24.997,-0.3923271894454956,2.0609562397003174,0.025440601631999016,-4.44,6.63,0.0,12.587,2025-04-20 22:43:40.366698,6,10
263,-78.6960507,35.7250878,24.996,-0.39665845036506653,2.0594987869262695,0.02636057883501053,-4.43,6.62,0.0,12.587,2025-04-20 22:43:41.367122,6,10
264,-78.6959776,35.7250481,24.997,-0.3976268470287323,2.060448169708252,0.025967920199036598,-4.45,6.65,0.0,12.587,2025-04-20 22:43:42.367999,6,10
265,-78.6959038,35.725008,24.999,-0.39464911818504333,2.060347557067871,0.025241436436772346,-4.45,6.64,0.0,12.587,2025-04-20 22:43:43.368698,6,10
266,-78.6958302,35.7249681,24.998,-0.3938778340816498,2.0610532760620117,0.025456886738538742,-4.45,6.64,0.0,12.587,2025-04-20 22:43:44.370691,6,10
267,-78.6957565,35.724928,24.998,-0.39464646577835083,2.05961012840271,0.02534349635243416,-4.43,6.62,0.0,12.587,2025-04-20 22:43:45.371035,6,10
268,-78.6956831,35.7248882,24.998,-0.39813876152038574,2.0603890419006348,0.025683503597974777,-4.44,6.65,0.0,12.587,2025-04-20 22:43:46.371769,6,10
269,-78.6956095,35.7248482,24.997,-0.39430442452430725,2.0604465007781982,0.02463345229625702,-4.45,6.65,0.0,12.587,2025-04-20 22:43:47.372827,6,10
270,-78.6955359,35.7248082,24.998,-0.39625436067581177,2.060370445251465,0.02500341832637787,-4.45,6.65,0.0,12.587,2025-04-20 22:43:48.374195,6,10
271,-78.695462,35.7247681,24.998,-0.3893124759197235,2.06076717376709,0.02354390174150467,-4.43,6.63,0.0,12.587,2025-04-20 22:43:49.375641,6,10
272,-78.6953889,35.7247284,24.998,-0.39962702989578247,2.059943437576294,0.025563010945916176,-4.44,6.64,0.0,12.587,2025-04-20 22:43:50.376571,6,10
273,-78.6953151,35.7246883,24.997,-0.39280784130096436,2.0606186389923096,0.024298977106809616,-4.44,6.64,0.0,12.587,2025-04-20 22:43:51.377624,6,10
274,-78.6952418,35.7246485,24.998,-0.399120956659317,2.0599002838134766,0.024635618552565575,-4.44,6.65,0.0,12.587,2025-04-20 22:43:52.379825,6,10
275,-78.6951682,35.7246085,24.998,-0.39428210258483887,2.060267210006714,0.02393861673772335,-4.45,6.66,0.0,12.587,2025-04-20 22:43:53.380988,6,10
276,-78.6950943,35.7245684,24.999,-0.3952206075191498,2.060206413269043,0.024258732795715332,-4.44,6.65,0.0,12.587,2025-04-20 22:43:54.381869,6,10
277,-78.6950206,35.7245284,24.999,-0.38975462317466736,2.0609447956085205,0.023745322600007057,-4.43,6.64,0.0,12.587,2025-04-20 22:43:55.382509,6,10
278,-78.6949475,35.7244887,24.996,-0.4009176194667816,2.059983253479004,0.024903465062379837,-4.44,6.65,0.0,12.587,2025-04-20 22:43:56.382883,6,10
279,-78.694874,35.7244488,24.997,-0.3955008089542389,2.0607640743255615,0.023670963943004608,-4.46,6.67,0.0,12.587,2025-04-20 22:43:57.384310,6,10
280,-78.6948,35.7244086,24.998,-0.3952891230583191,2.0603854656219482,0.023511145263910294,-4.44,6.66,0.0,12.587,2025-04-20 22:43:58.384987,6,10
281,-78.6947264,35.7243686,24.998,-0.39043352007865906,2.0608253479003906,0.023042647168040276,-4.44,6.65,0.0,12.587,2025-04-20 22:43:59.385868,6,10
282,-78.6946527,35.7243286,24.998,-0.3952562212944031,2.059913396835327,0.023590566590428352,-4.43,6.63,0.0,12.587,2025-04-20 22:44:00.386760,6,10
283,-78.6945794,35.7242888,24.998,-0.3919447064399719,2.0605404376983643,0.02331993542611599,-4.44,6.65,0.0,12.587,2025-04-20 22:44:01.387056,6,10
284,-78.694506,35.7242489,24.998,-0.40004533529281616,2.0598976612091064,0.023563295602798462,-4.44,6.65,0.0,12.587,2025-04-20 22:44:02.387992,6,10
285,-78.6944326,35.7242091,24.998,-0.39789456129074097,2.060565710067749,0.023030467331409454,-4.46,6.68,0.0,12.587,2025-04-20 22:44:03.388624,6,10
286,-78.6943587,35.724169,24.999,-0.396793395280838,2.06040620803833,0.02243787981569767,-4.45,6.67,0.0,12.587,2025-04-20 22:44:04.389624,6,10
287,-78.6942851,35.724129,24.998,-0.39372414350509644,2.0603458881378174,0.022696422412991524,-4.45,6.66,0.0,12.587,2025-04-20 22:44:05.389918,6,10
288,-78.6942113,35.724089,24.996,-0.39789074659347534,2.0602731704711914,0.023435719311237335,-4.43,6.64,0.0,12.587,2025-04-20 22:44:06.390304,6,10
289,-78.6941382,35.7240493,24.998,-0.39889785647392273,2.0603911876678467,0.02296084724366665,-4.45,6.66,0.0,12.587,2025-04-20 22:44:07.392221,6,10
290,-78.6940645,35.7240092,24.999,-0.3960878849029541,2.0606727600097656,0.02243911288678646,-4.44,6.66,0.0,12.587,2025-04-20 22:44:08.392954,6,10
291,-78.6939909,35.7239693,24.998,-0.3964575231075287,2.0607211589813232,0.02209591679275036,-4.44,6.66,0.0,12.587,2025-04-20 22:44:09.393343,6,10
292,-78.693917,35.7239291,24.998,-0.39333388209342957,2.0599231719970703,0.022059831768274307,-4.43,6.64,0.0,12.587,2025-04-20 22:44:10.393676,6,10
293,-78.6938438,35.7238894,24.998,-0.40033718943595886,2.0603437423706055,0.022524846717715263,-4.44,6.66,0.0,12.587,2025-04-20 22:44:11.394667,6,10
294,-78.6937702,35.7238494,24.999,-0.39636746048927307,2.060560703277588,0.022147102281451225,-4.44,6.66,0.0,12.587,2025-04-20 22:44:12.395162,6,10
295,-78.6936966,35.7238095,24.998,-0.3980076313018799,2.0603508949279785,0.022261228412389755,-4.45,6.67,0.0,12.587,2025-04-20 22:44:13.395838,6,10
296,-78.6936228,35.7237694,24.999,-0.3936235010623932,2.0604360103607178,0.02176612988114357,-4.44,6.66,0.0,12.587,2025-04-20 22:44:14.396951,6,10
297,-78.6935492,35.7237294,24.999,-0.39587658643722534,2.0606324672698975,0.021621568128466606,-4.44,6.65,0.0,12.587,2025-04-20 22:44:15.397236,6,10
298,-78.6934755,35.7236895,24.998,-0.39444848895072937,2.0603535175323486,0.021561304107308388,-4.43,6.64,0.0,12.587,2025-04-20 22:44:16.398224,6,10
299,-78.6934025,35.7236498,24.996,-0.4026675224304199,2.060685157775879,0.02227390557527542,-4.44,6.67,0.0,12.587,2025-04-20 22:44:17.399273,6,10
300,-78.6933298,35.7236103,25.001,-0.2839249074459076,2.062765121459961,0.009303445927798748,-4.22,6.33,0.0,12.587,2025-04-20 22:44:18.400448,6,10
301,-78.6932646,35.723575,24.996,-0.17770877480506897,2.062720775604248,0.0027948329225182533,-3.57,5.37,0.0,12.587,2025-04-20 22:44:19.400968,6,10
302,-78.6932111,35.7235461,24.989,-0.06692532449960709,2.06308650970459,-0.002548598451539874,-2.81,4.24,0.0,12.587,2025-04-20 22:44:20.402039,6,10
303,-78.6931711,35.7235245,24.989,0.032661065459251404,2.062243938446045,-0.00754596246406436,-1.95,2.95,0.0,12.587,2025-04-20 22:44:21.402708,6,10
304,-78.6931465,35.7235112,24.991,0.14194299280643463,2.061183452606201,-0.015122194774448872,-0.99,1.49,0.0,12.587,2025-04-20 22:44:22.403864,6,10
305,-78.6931382,35.7235066,24.994,0.09495020657777786,2.0622944831848145,-0.009100456722080708,-0.11,0.18,0.0,12.587,2025-04-20 22:44:23.405000,6,10
306,-78.6931394,35.7235071,24.992,0.013177642598748207,2.0618536472320557,-0.0021765909623354673,0.14,-0.2,0.0,12.587,2025-04-20 22:44:24.406067,6,10
307,-78.6931423,35.7235085,24.992,-0.009746313095092773,2.0624659061431885,-0.00120752421207726,0.11,-0.15,0.0,12.587,2025-04-20 22:44:25.407554,6,10
308,-78.693144,35.7235093,24.995,-0.008312146179378033,2.1226632595062256,-0.0020963505376130342,0.06,-0.06,0.0,12.587,2025-04-20 22:44:26.408044,6,10
309,-78.6931448,35.7235097,24.999,-6.69135624775663e-05,-3.004270076751709,-0.003970353864133358,0.03,-0.01,0.0,12.587,2025-04-20 22:44:27.408434,6,10
310,-78.6931452,35.7235099,25.001,0.0018067247001454234,-1.8891587257385254,0.00018831482157111168,0.02,0.0,0.0,12.587,2025-04-20 22:44:28.412409,6,10
311,-78.6931453,35.7235101,25.001,0.0006491740932688117,-1.220372200012207,0.00024253664014395326,0.02,0.0,0.0,12.587,2025-04-20 22:44:29.414504,6,10
312,-78.6931454,35.7235102,25.001,0.0004537233035080135,-0.5154632329940796,-1.973017606360372e-05,0.01,0.0,0.0,12.587,2025-04-20 22:44:30.414820,6,10
313,-78.6931454,35.7235103,25.001,0.0005808601854369044,0.4803211987018585,-0.00018563165212981403,0.0,0.0,0.0,12.587,2025-04-20 22:44:31.416442,6,10
314,-78.6931453,35.7235103,25.001,0.0014146460453048348,1.0296341180801392,-0.000771955878008157,0.0,-0.01,0.0,12.587,2025-04-20 22:44:32.417643,6,10
315,-78.6931453,35.7235103,25.001,0.00033244758378714323,0.43671491742134094,-0.0016741149593144655,0.0,-0.01,0.0,12.587,2025-04-20 22:44:33.418102,6,10
316,-78.6931453,35.7235103,25.001,0.001169597264379263,1.138351559638977,-0.001169988769106567,0.0,-0.02,0.0,12.587,2025-04-20 22:44:34.419689,6,10
317,-78.6931453,35.7235103,25.001,0.001441473257727921,2.656294822692871,0.0007353578694164753,0.0,-0.02,0.0,12.587,2025-04-20 22:44:35.420183,6,10
318,-78.6931453,35.7235103,25.001,0.0013044442748650908,2.2390482425689697,-7.999074296094477e-05,0.01,-0.02,0.0,12.587,2025-04-20 22:44:36.420761,6,10
319,-78.6931454,35.7235103,25.001,0.00018302806711290032,1.8338230848312378,-0.0010577376233413815,0.01,-0.01,0.0,12.587,2025-04-20 22:44:37.421373,6,10
320,-78.6931456,35.7235103,25.001,0.00022187530703376979,2.2668442726135254,-0.0015729113947600126,0.01,0.0,0.0,12.587,2025-04-20 22:44:38.422817,6,10
321,-78.6931457,35.7235103,25.001,-0.0004229196347296238,2.1304380893707275,-0.0019016225123777986,0.01,0.0,0.0,12.587,2025-04-20 22:44:39.424706,6,10
322,-78.6931457,35.7235103,25.003,-0.0008952465141192079,2.06451416015625,-0.001637360779568553,0.01,0.01,0.0,12.587,2025-04-20 22:44:40.426592,6,10
323,-78.6931459,35.7235103,25.002,-0.0013525900430977345,2.18617582321167,-0.0017810072749853134,0.01,0.02,0.0,12.587,2025-04-20 22:44:41.428545,6,10
324,-78.6931459,35.7235103,25.001,-0.0009652950684539974,2.1008589267730713,-0.0012904504546895623,0.01,0.02,0.0,12.587,2025-04-20 22:44:42.430428,6,10
325,-78.6931459,35.7235103,25.001,-0.0011557956459000707,2.10715651512146,-0.0008923988207243383,0.01,0.02,0.0,12.587,2025-04-20 22:44:43.431919,6,10
326,-78.6931459,35.7235103,25.001,-0.0022485475055873394,1.1463921070098877,0.0008288936805911362,0.0,0.02,0.0,12.587,2025-04-20 22:44:44.432409,6,10
327,-78.6931459,35.7235103,25.001,0.0002153842942789197,-0.33893465995788574,0.0019109065178781748,0.0,0.02,0.0,12.587,2025-04-20 22:44:45.433346,6,10
328,-78.693146,35.7235105,25.001,-0.15871702134609222,-1.0018972158432007,0.06303681433200836,0.2,-0.11,0.0,12.587,2025-04-20 22:44:46.433761,6,10
329,-78.6931553,35.723521,25.001,-0.333133727312088,-0.6511757373809814,0.005429711192846298,2.23,-1.59,0.0,12.587,2025-04-20 22:44:47.434955,6,10
330,-78.6931804,35.7235492,25.006,-0.44160327315330505,-0.6219713091850281,-0.0029498133808374405,4.15,-3.02,0.0,12.587,2025-04-20 22:44:48.435895,6,10
331,-78.6932209,35.7235949,25.006,-0.4454633295536041,-0.7948170900344849,0.05256713181734085,5.94,-4.27,0.0,12.587,2025-04-20 22:44:49.436324,6,10
332,-78.6932707,35.7236509,25.007,-0.42369261384010315,-0.6456604599952698,-0.009467379190027714,6.35,-4.67,0.0,12.587,2025-04-20 22:44:50.437234,6,10
333,-78.6933236,35.7237093,25.0,-0.4162832498550415,-0.7169787883758545,0.02483193948864937,6.57,-4.83,0.0,12.587,2025-04-20 22:44:51.439121,6,10
334,-78.6933773,35.7237691,25.001,-0.4123797118663788,-0.7145212292671204,0.015609783120453358,6.63,-4.83,0.0,12.587,2025-04-20 22:44:52.439736,6,10
335,-78.6934306,35.7238283,25.002,-0.40536409616470337,-0.6838955879211426,0.00891638733446598,6.6,-4.84,0.0,12.587,2025-04-20 22:44:53.440195,6,10
336,-78.6934839,35.7238875,25.001,-0.4015583395957947,-0.71424800157547,0.018073154613375664,6.56,-4.79,0.0,12.587,2025-04-20 22:44:54.440947,6,10
337,-78.6935365,35.723946,24.999,-0.398322731256485,-0.6983422636985779,0.011451249942183495,6.53,-4.77,0.0,12.587,2025-04-20 22:44:55.442255,6,10
338,-78.6935891,35.7240046,24.998,-0.39809879660606384,-0.7014331817626953,0.014051422476768494,6.49,-4.74,0.0,12.587,2025-04-20 22:44:56.442798,6,10
339,-78.693641,35.7240626,24.998,-0.39997217059135437,-0.7051060199737549,0.013698650524020195,6.49,-4.73,0.0,12.587,2025-04-20 22:44:57.443599,6,10
340,-78.693693,35.7241205,24.998,-0.4034593403339386,-0.6999453902244568,0.01155073381960392,6.49,-4.74,0.0,12.587,2025-04-20 22:44:58.444145,6,10
341,-78.6937451,35.7241785,24.998,-0.4033617675304413,-0.7029414772987366,0.013019652105867863,6.51,-4.76,0.0,12.587,2025-04-20 22:44:59.444933,6,10
342,-78.6937976,35.7242371,24.996,-0.3972054123878479,-0.7025392055511475,0.012016253545880318,6.49,-4.74,0.0,12.587,2025-04-20 22:45:00.447050,6,10
343,-78.6938498,35.7242953,24.995,-0.39830970764160156,-0.7016423940658569,0.012072869576513767,6.47,-4.74,0.0,12.587,2025-04-20 22:45:01.447744,6,10
344,-78.693902,35.7243534,24.997,-0.3962436318397522,-0.7028082609176636,0.012317776679992676,6.46,-4.72,0.0,12.587,2025-04-20 22:45:02.448195,6,10
345,-78.693954,35.7244113,24.998,-0.4008592367172241,-0.7027697563171387,0.012336354702711105,6.47,-4.73,0.0,12.587,2025-04-20 22:45:03.448813,6,10
346,-78.694006,35.7244693,24.998,-0.4011956751346588,-0.7026963233947754,0.012470324523746967,6.47,-4.73,0.0,12.587,2025-04-20 22:45:04.449603,6,10
347,-78.6940582,35.7245273,24.997,-0.40157803893089294,-0.7025558352470398,0.012432432733476162,6.49,-4.74,0.0,12.587,2025-04-20 22:45:05.450056,6,10
348,-78.6941106,35.7245857,24.996,-0.3949618935585022,-0.702264130115509,0.011783218942582607,6.47,-4.73,0.0,12.587,2025-04-20 22:45:06.451873,6,10
349,-78.6941627,35.7246437,24.998,-0.40020468831062317,-0.7026152610778809,0.01234836969524622,6.46,-4.73,0.0,12.587,2025-04-20 22:45:07.452664,6,10
350,-78.6942147,35.7247018,24.998,-0.39816564321517944,-0.702765703201294,0.011733797378838062,6.46,-4.72,0.0,12.587,2025-04-20 22:45:08.453073,6,10
351,-78.6942667,35.7247597,24.997,-0.4024306535720825,-0.7021260261535645,0.012010334059596062,6.47,-4.73,0.0,12.587,2025-04-20 22:45:09.453654,6,10
352,-78.694319,35.724818,24.996,-0.39398524165153503,-0.7028654217720032,0.011644742451608181,6.47,-4.74,0.0,12.587,2025-04-20 22:45:10.454695,6,10
353,-78.6943712,35.7248761,24.998,-0.39981845021247864,-0.701792299747467,0.011653251014649868,6.46,-4.72,0.0,12.587,2025-04-20 22:45:11.454916,6,10
354,-78.6944234,35.7249342,24.998,-0.393492728471756,-0.703005313873291,0.012197183445096016,6.46,-4.73,0.0,12.587,2025-04-20 22:45:12.455560,6,10
355,-78.6944754,35.7249922,24.998,-0.4024488627910614,-0.7023234367370605,0.012224123813211918,6.46,-4.72,0.0,12.587,2025-04-20 22:45:13.457634,6,10
356,-78.6945273,35.7250501,24.998,-0.39790698885917664,-0.7024585604667664,0.011263042688369751,6.48,-4.74,0.0,12.587,2025-04-20 22:45:14.457910,6,10
357,-78.6945796,35.7251083,24.998,-0.40020421147346497,-0.7028542757034302,0.012141101993620396,6.47,-4.74,0.0,12.587,2025-04-20 22:45:15.458179,6,10
358,-78.6946318,35.7251665,24.996,-0.3941890597343445,-0.7024238705635071,0.011497151106595993,6.48,-4.73,0.0,12.587,2025-04-20 22:45:16.458836,6,10
359,-78.6946842,35.7252248,24.997,-0.3968377113342285,-0.7024720907211304,0.011460266076028347,6.45,-4.72,0.0,12.587,2025-04-20 22:45:17.459601,6,10
360,-78.6947361,35.7252827,24.998,-0.39687472581863403,-0.7018054723739624,0.011300991289317608,6.46,-4.72,0.0,12.587,2025-04-20 22:45:18.460327,6,10
361,-78.6947881,35.7253406,24.998,-0.40295088291168213,-0.7028690576553345,0.012339762412011623,6.47,-4.73,0.0,12.587,2025-04-20 22:45:19.462277,6,10
362,-78.6948401,35.7253985,24.998,-0.4006922245025635,-0.7022475004196167,0.011599350720643997,6.49,-4.75,0.0,12.587,2025-04-20 22:45:20.463301,6,10
363,-78.6948926,35.725457,24.999,-0.39704400300979614,-0.7026834487915039,0.011649479158222675,6.47,-4.73,0.0,12.587,2025-04-20 22:45:21.463573,6,10
364,-78.6949446,35.7255149,24.997,-0.39734727144241333,-0.7010799050331116,0.011163150891661644,6.46,-4.73,0.0,12.587,2025-04-20 22:45:22.464441,6,10
365,-78.6949968,35.7255731,24.996,-0.39720267057418823,-0.7030354142189026,0.011991743929684162,6.45,-4.72,0.0,12.587,2025-04-20 22:45:23.465232,6,10
366,-78.6950488,35.725631,24.998,-0.39877307415008545,-0.7034537196159363,0.012633716687560081,6.46,-4.72,0.0,12.587,2025-04-20 22:45:24.466247,6,10
367,-78.6951008,35.725689,24.998,-0.4010520577430725,-0.7024039626121521,0.01202418189495802,6.47,-4.73,0.0,12.587,2025-04-20 22:45:25.466981,6,10
368,-78.695153,35.7257472,24.998,-0.40044131875038147,-0.7025685906410217,0.011731467209756374,6.48,-4.74,0.0,12.587,2025-04-20 22:45:26.467703,6,10
369,-78.6952053,35.7258054,24.999,-0.3963140845298767,-0.7024495005607605,0.011497088707983494,6.46,-4.72,0.0,12.587,2025-04-20 22:45:27.468362,6,10
370,-78.6952574,35.7258635,24.998,-0.3999347984790802,-0.7025054097175598,0.011977762915194035,6.46,-4.73,0.0,12.587,2025-04-20 22:45:28.468768,6,10
371,-78.6953095,35.7259214,24.996,-0.3990887403488159,-0.7035489082336426,0.012402093969285488,6.46,-4.73,0.0,12.587,2025-04-20 22:45:29.469195,6,10
372,-78.6953615,35.7259794,24.997,-0.40139833092689514,-0.7017995715141296,0.011746430769562721,6.48,-4.73,0.0,12.587,2025-04-20 22:45:30.469514,6,10
373,-78.6954139,35.7260378,24.999,-0.39496901631355286,-0.7029545307159424,0.011252977885305882,6.47,-4.73,0.0,12.587,2025-04-20 22:45:31.470075,6,10
374,-78.6954659,35.7260958,24.998,-0.40008705854415894,-0.7019176483154297,0.011489726603031158,6.46,-4.73,0.0,12.587,2025-04-20 22:45:32.470527,6,10
375,-78.6955181,35.7261539,24.999,-0.3956955373287201,-0.703384280204773,0.012052163481712341,6.46,-4.73,0.0,12.587,2025-04-20 22:45:33.471333,6,10
376,-78.6955701,35.7262118,24.998,-0.4024006724357605,-0.7018415927886963,0.011793672107160091,6.47,-4.73,0.0,12.587,2025-04-20 22:45:34.471979,6,10
377,-78.6956224,35.7262701,24.999,-0.39248427748680115,-0.7028920650482178,0.011469623073935509,6.47,-4.73,0.0,12.587,2025-04-20 22:45:35.473028,6,10
378,-78.6956744,35.7263281,24.998,-0.4011593759059906,-0.7023186683654785,0.011962986551225185,6.46,-4.72,0.0,12.587,2025-04-20 22:45:36.474226,6,10
379,-78.6957266,35.7263862,24.997,-0.3943643867969513,-0.7024304270744324,0.011468736454844475,6.47,-4.73,0.0,12.587,2025-04-20 22:45:37.474877,6,10
380,-78.6957788,35.7264443,24.998,-0.39815691113471985,-0.7024433016777039,0.011567837558686733,6.46,-4.72,0.0,12.587,2025-04-20 22:45:38.475583,6,10
381,-78.6958308,35.7265023,24.998,-0.3964121341705322,-0.7030048370361328,0.012111100368201733,6.46,-4.72,0.0,12.587,2025-04-20 22:45:39.476421,6,10
382,-78.6958829,35.7265602,24.998,-0.4027096629142761,-0.7022287845611572,0.012545190751552582,6.47,-4.73,0.0,12.587,2025-04-20 22:45:40.476890,6,10
383,-78.695935,35.7266183,24.998,-0.3965088427066803,-0.7025724649429321,0.011815597303211689,6.49,-4.74,0.0,12.587,2025-04-20 22:45:41.477486,6,10
384,-78.6959874,35.7266768,24.997,-0.397145539522171,-0.702441930770874,0.011498281732201576,6.46,-4.72,0.0,12.587,2025-04-20 22:45:42.478560,6,10
385,-78.6960394,35.7267347,24.998,-0.3960050940513611,-0.7027587294578552,0.011846721172332764,6.46,-4.73,0.0,12.587,2025-04-20 22:45:43.479960,6,10
386,-78.6960917,35.7267929,24.998,-0.39777469635009766,-0.7025988101959229,0.01226978562772274,6.45,-4.72,0.0,12.587,2025-04-20 22:45:44.480458,6,10
387,-78.6961437,35.7268508,24.998,-0.3972565233707428,-0.7027561068534851,0.012004989199340343,6.47,-4.73,0.0,12.587,2025-04-20 22:45:45.481157,6,10
388,-78.6961958,35.7269089,24.998,-0.4009166955947876,-0.7023231387138367,0.011943936347961426,6.46,-4.72,0.0,12.587,2025-04-20 22:45:46.482266,6,10
389,-78.6962477,35.7269668,24.997,-0.40023306012153625,-0.7024567127227783,0.011607276275753975,6.48,-4.74,0.0,12.587,2025-04-20 22:45:47.484192,6,10
390,-78.6963001,35.7270251,24.998,-0.35497555136680603,-0.7018614411354065,0.008231676183640957,6.42,-4.69,0.0,12.587,2025-04-20 22:45:48.485299,6,10
391,-78.696349,35.7270796,24.999,-0.23023855686187744,-0.7015281915664673,0.00043898081639781594,5.67,-4.15,0.0,12.587,2025-04-20 22:45:49.486004,6,10
392,-78.6963911,35.7271262,24.991,-0.1230899840593338,-0.7015011310577393,-0.001085691968910396,4.65,-3.41,0.0,12.587,2025-04-20 22:45:50.486207,6,10
393,-78.6964242,35.7271628,24.988,-0.015464277006685734,-0.7020876407623291,-0.0038576105143874884,3.47,-2.55,0.0,12.587,2025-04-20 22:45:51.486977,6,10
394,-78.6964472,35.7271882,24.988,0.08755916357040405,-0.7000012993812561,-0.006494374945759773,2.15,-1.57,0.0,12.587,2025-04-20 22:45:52.487341,6,10
395,-78.6964586,35.7272007,24.991,0.10343077033758163,0.10406726598739624,0.09659361094236374,0.67,-0.47,-0.01,12.587,2025-04-20 22:45:53.488353,6,10
396,-78.6964597,35.7272023,24.99,-0.02716371975839138,1.603173851966858,0.03474166616797447,-0.1,0.1,0.0,12.587,2025-04-20 22:45:54.488816,6,10
397,-78.6964567,35.7272,24.986,-0.2660934627056122,2.2472710609436035,-0.05922865495085716,-0.47,0.71,0.0,12.587,2025-04-20 22:45:55.489880,6,10
398,-78.6964358,35.7271904,24.984,-0.337758332490921,1.7601430416107178,0.08877455443143845,-1.57,2.94,0.0,12.587,2025-04-20 22:45:56.490337,6,10
