time,dl_lw1,dl_lw2,dl_lw3,dl_lw4,num,Longitude,Latitude,Altitude,Pitch,Yaw,Roll,VelocityX,VelocityY,VelocityZ,BatteryVolts,GPSFix,NumberOfSatellites
2025-05-24 16:19:32.181,2.67,0,0,0,59.0040505960077,-78.696291093519,35.7274889983798,24.7961093660922,0.0473083388747213,0.584980980255803,-0.0964493127800624,-0.0200810119201543,0.000607589401156872,-0.259027856958149,43.2067326606635,4,29
2025-05-24 16:19:33.203,6.5,0,0,0,60.0244689268976,-78.6962894730842,35.7274885853186,24.825153265567,0.0489580300007072,0.581090674842802,-0.112733434235645,-0.0395106214620489,0.14779779657922,-0.0219575141518045,43.1428351695173,4,29
2025-05-24 16:19:34.195,10.32,0,0,0,61.0146572538185,-78.6962883970685,35.7274879970686,24.911967378752,0.0515655629526606,0.580171342228108,-0.129971349986676,-0.0194137098472592,0.0591205647708889,-0.10029314507637,43.2177295559506,4,29
2025-05-24 16:19:35.188,12.99,0,0,0,62.0056614785603,-78.6962882050953,35.7274878033969,24.977090583657,0.046526701105663,0.587149716158988,-0.132704909230398,0.0204529182848252,-0.000849221784047177,-0.120283073928016,43.3334678210153,4,29
2025-05-24 16:19:36.198,19.32,0,0,0,63.0152241899905,-78.6962891350156,35.7274884137018,24.9935480708397,0.074605311750609,0.855426974281936,-0.104215310673241,0.100608967599621,-0.150608967599621,-0.164976017303127,43.2396193952502,4,29
2025-05-24 16:19:37.181,23.97,0,0,0,63.9978680936679,-78.6962913950966,35.7274892980813,25.028923251372,-0.00424042855846414,1.29021989613867,-0.0350345335909609,0.139914723746718,-0.189914723746718,0.159296470910422,43.2150532976583,4,29
2025-05-24 16:19:38.180,29.43,0,0,0,64.9960702889452,-78.6962822361534,35.7274922882109,24.8078723958542,-0.215705351170165,1.27922892135012,-0.0352387717064149,0.618113738693703,2.09100096168454,0.090275079773835,43.0685776675251,4,29
2025-05-24 16:19:39.199,34.08,0,0,0,66.0139848544027,-78.6962458461998,35.7275006566304,24.9320908186434,0.00871011720483053,1.24997229584211,-0.081801241180791,1.18041954563208,3.88811287375772,-0.196224089311276,43.1608183627132,4,29
2025-05-24 16:19:40.202,38.72,0,0,0,67.0161717958605,-78.69620635851,35.7275118536321,25.0094851538758,0.136417261425805,1.23714320856103,-0.0727557561760586,1.2040164355316,3.0291383833399,0.0690296922483674,43.0070161717959,4,29
2025-05-24 16:19:41.306,43.37,0,0,0,68.1190502821191,-78.6961779642514,35.7275217119162,25.0441191621311,0.178816995728779,1.22848297340285,-0.049987991950919,0.772141339192085,1.61118714735106,0.012381005642383,43.0143096649523,4,29
2025-05-24 16:19:42.189,51.14,0,0,0,69.0007767858837,-78.6961665975143,35.7275255004661,25.0820023303576,0.152679777013044,1.22861879249243,-0.0513248191679226,0.269829107105596,0.509642678493519,0.0300233035765096,43.0610077678588,4,29
2025-05-24 16:19:43.192,58.91,0,0,0,70.0017615825299,-78.6961634,35.7275261001761,25.0850140926602,0.0794780714655278,1.23528071443668,-0.0580731612016204,0.0499823841747009,0.0498414575723085,0.0601233107770934,43.0708749276404,4,29
2025-05-24 16:19:44.182,66.68,0,0,0,70.9905992374793,-78.6961634,35.7275261990599,25.0929247938998,0.0546737692685625,1.2363301879181,-0.0580721334472773,0.040094007625207,-0.0391539313731366,0.129341946623551,43.000667454139,4,29
2025-05-24 16:19:45.184,74.45,0,0,0,71.9914895020204,-78.6961638957448,35.7275265965958,25.0781276574697,0.0521385820855506,1.23957409194288,-0.0430803853806026,0.0300851049797955,-0.0300851049797955,-0.00880853028286291,43.1516978938091,4,29
2025-05-24 16:19:46.194,82.22,0,0,0,73.0010136320516,-78.6961644003041,35.7275266016218,24.9411297449026,0.0794883292317046,2.05231151847453,-0.0188556712197398,0.0302736806539254,-0.0997871372691692,0.0498885004743267,42.8942645579655,4,29
2025-05-24 16:19:47.208,89.99,0,0,0,74.014523948884,-78.6961646970952,35.7275282275955,25.068622377329,0.0429713022937159,2.76129075151013,0.0679498271034139,0.297966647156239,0.108402365622759,-0.0546261389129172,43.148987085162,4,29
2025-05-24 16:19:48.188,97.76,0,0,0,74.993375776838,-78.6961645013248,35.727530087414,25.0431722298022,-0.0283110529208879,-2.53024117207447,0.0481522721043951,0.160927391242681,0.000728664547820618,0.307549037430058,42.7437424283891,4,29
2025-05-24 16:19:49.199,104.93,0,0,0,76.0029605125163,-78.6961642952632,35.7275306964474,25.099275327664,-0.0580427013929238,-1.86626425324481,0.00277645306094548,0.0493190821212595,0.209733553873536,-0.0890230308696332,43.0838963820619,4,29
2025-05-24 16:19:50.211,112.1,0,0,0,77.0139689490048,-78.6961626986031,35.7275294678714,25.1896671855162,-0.0804134938046537,-0.990929471659562,-0.0434914498031608,-0.179860310509952,0.117764968159234,0.240419068470144,43.0453820422078,4,29
2025-05-24 16:19:51.203,117.56,0,0,0,78.0050289107423,-78.696162609052,35.7275271979884,25.0251206938578,-0.0671413339864487,-0.285577868040154,-0.0771885590528849,-0.169094796066381,-0.0409052039336191,0.268239881240185,42.7907744522543,4,29
2025-05-24 16:19:52.649,123.02,0,0,0,79.4499624251,-78.6961652549286,35.7275268449962,25.0364010520972,0.0294625808998985,0.897363779801476,-0.0576579875025462,0.0369977455060018,-0.188502630242998,-0.0575018787449985,43.0056448522387,4,29
2025-05-24 16:19:53.248,130.79,0,0,0,80.0491175032676,-78.696166398235,35.7275269049118,25.0188879473595,0.0427433401940475,1.29037453102236,-0.0433420181266616,0.0596853243138063,-0.152455875163379,-0.0290176499346482,43.0796738274118,4,29
2025-05-24 16:19:54.231,137.96,0,0,0,81.0294773895534,-78.696168367798,35.727526943993,24.9744037584745,0.0270039475475967,1.27173166326934,-0.0120968974696281,-0.144421608433008,-0.201768643373203,-0.0123581911642707,43.0521724018477,4,29
2025-05-24 16:19:55.243,145.73,0,0,0,82.0399442258036,-78.6961706798885,35.7275250081283,24.8609530839997,0.0203863293207869,1.27137717188102,-0.0255156923868825,-0.283608923871418,-0.25440780838749,-0.0951927493544732,43.0003882874188,4,29
2025-05-24 16:19:56.251,153.5,0,0,0,83.0454669813958,-78.6961726045467,35.7275227954533,24.9822278820884,-0.0037548476500685,1.27023185905629,-0.0467044115512578,-0.119087924465,-0.11181594334875,-0.207269245209166,43.1952708867534,4,29
2025-05-24 16:19:57.254,161.27,0,0,0,84.0479195722455,-78.696172589785,35.7275227143759,25.0243518014922,-0.00187086906925198,1.26175354820832,-0.0130243275628503,0.106166434220359,0.0681463272817363,0.0585624128326348,43.0531374476996,4,29
2025-05-24 16:19:58.277,169.04,0,0,0,85.0694348484183,-78.6961701986389,35.7275229930565,24.9349162636336,0.0241548670632524,1.21606670732571,-0.043779417956146,0.0230565151581719,0.223750863642355,0.0313886969683656,43.0216964212258,4,29
2025-05-24 16:19:59.286,176.2,0,0,0,86.076524247622,-78.6961673086894,35.7275228923476,24.9734643302666,0.0235631839177907,0.446753151641608,-0.0557613397225808,-0.0638780601902385,0.146887182285982,0.0477042725713394,42.8305356697334,4,29
2025-05-24 16:20:00.318,183.37,0,0,0,87.1081293607599,-78.6961649351224,35.7275230703234,24.9607284970759,-0.0588115283563373,-0.580014032232595,-0.0260812491778941,0.132186177658718,0.149984273037654,0.0178374127848014,42.8249976409556,4,29
2025-05-24 16:20:01.310,188.83,0,0,0,88.0998821305282,-78.6961657783734,35.7275274774304,24.9219846769687,-0.35065364564281,-0.592186711621305,-0.0349169447158723,1.3937006115416,-0.649834982739466,-0.00599292783169139,42.7426803157982,4,29
2025-05-24 16:20:02.350,194.29,0,0,0,89.1398553874906,-78.6961821858786,35.727553225666,25.0536848156865,-0.380003537991061,-0.568095922329511,-0.0459333059413351,3.98908040635416,-2.10160188086208,-0.0390216918764146,42.8797137381884,4,29
2025-05-24 16:20:03.382,202.06,0,0,0,90.1704467477519,-78.6962140632995,35.7276015017877,25.1300233666843,-0.385210717648463,-0.566433014504457,-0.0736515165446578,6.21555328820608,-3.49987630459992,0.120680414595337,42.7507862508727,4,29
2025-05-24 16:20:04.383,209.23,0,0,0,91.1706574322556,-78.6962593885532,35.7276661040963,25.0611467128387,-0.370979427238155,-0.571580015381746,-0.0845515961024455,7.96724428361045,-4.67239445935334,0.247814533806777,42.5288502418838,4,29
2025-05-24 16:20:05.398,214.69,0,0,0,92.1848489299056,-78.6963159994192,35.727743977005,25.0656878997056,-0.194946880999807,-0.581686138945366,-0.0826198629077193,8.77815151070094,-5.15890906420567,0.119666617710385,42.608221311369,4,29
2025-05-24 16:20:06.429,219.34,0,0,0,93.2144446298181,-78.6963746520107,35.7278254481256,25.0900610990618,-0.166384827019613,-0.590470716136091,-0.106909341410124,8.74641109072,-5.15288892596363,0.0128444296145482,42.8146611324291,4,29
2025-05-24 16:20:07.455,224.8,0,0,0,94.2395049529655,-78.6964338152378,35.7279054095348,25.0193605938568,-0.153714105238915,-0.587111459142223,-0.0872933956069391,8.65760495047035,-5.28604950470345,-0.0332346532924121,42.8836840591861,4,29
2025-05-24 16:20:08.461,229.45,0,0,0,95.2438455413456,-78.6964920698877,35.7279834711831,24.9679730493606,-0.143448089600158,-0.591362981639849,-0.0878212015845014,8.63780772293272,-5.17586162421162,-0.0116999203749266,42.8591606608182,4,29
2025-05-24 16:20:09.467,234.09,0,0,0,96.2487768464223,-78.6965492832158,35.7280614060618,25.0136925117818,-0.147984565976625,-0.594806010144715,-0.0866324787336072,8.58009785228622,-5.00034248300176,-0.0577568622513233,42.9449860686405,4,29
2025-05-24 16:20:10.485,238.74,0,0,0,97.2659403034611,-78.6966045012122,35.7281395242153,25.0599035524419,-0.174726897633687,-0.593798084262625,-0.105493424845015,8.53595641820766,-4.82989104551916,0.0627683575154497,42.8462736128022,4,29
2025-05-24 16:20:11.522,242.56,0,0,0,98.302731682563,-78.6966605924279,35.7282191497932,25.0606350267914,-0.180283487391363,-0.591220256959171,-0.100650084167182,8.56183609904622,-5.00357365333823,-0.0127541485693286,42.9325257594889,4,29
2025-05-24 16:20:12.527,244.64,0,0,0,99.3068649117408,-78.6967169606135,35.7282962672252,24.9739743754721,-0.177989722606921,-0.582680908904048,-0.078681014215174,8.54761784205668,-5.15613729823482,-0.0236475788178015,42.914023092847,4,29
2025-05-24 16:20:13.528,247.31,0,0,0,100.306888216859,-78.696773432296,35.7283733145256,24.935296435036,-0.17988424667852,-0.582067623341284,-0.0719954626799793,8.65296435036027,-5.09941571012241,-0.101002417110869,42.9652447132564,4,29
2025-05-24 16:20:14.554,249.38,0,0,0,101.331171155319,-78.6968299819451,35.7284529975843,24.9542727923489,-0.194067918237296,-0.585007577481596,-0.087731333238437,8.72681801912768,-4.95987026931913,0.0701945960212996,42.7078702693191,4,29
2025-05-24 16:20:15.555,251.45,0,0,0,102.332055681256,-78.6968848958848,35.7285312003431,24.9713397215937,-0.198783941909079,-0.586305724416464,-0.0966970096353946,8.69660278406282,-5.02324389768794,-0.0298466817507535,42.7755606215443,4,29
2025-05-24 16:20:16.571,253.53,0,0,0,103.347094173566,-78.6969415802396,35.728610581602,24.9711238475621,-0.179094821988824,-0.586798138987758,-0.0960928927339806,8.71958717479303,-5.11512224256352,-0.0961162330573774,42.8532140271082,4,29
2025-05-24 16:20:17.593,254.76,0,0,0,104.367184135615,-78.6969993826221,35.7286903200521,25.0096793880697,-0.17231285257859,-0.583644925273705,-0.0909548030542369,8.6706252691508,-5.1632815864385,-0.0369534277946466,42.9016093144411,4,29
2025-05-24 16:20:18.625,256.41,0,0,0,105.398787010563,-78.6970576915874,35.7287705250229,25.0408764183345,-0.180196233506893,-0.581630632145511,-0.084115685258238,8.66785444126761,-5.0880363896831,0.103745272218325,42.834438958919,4,29
2025-05-24 16:20:19.626,257.25,0,0,0,106.398333188454,-78.6971136278253,35.7288487496553,24.9663533466622,-0.173884074948649,-0.587324120743658,-0.0887441063167956,8.69220001738552,-5.00228335796282,0.174233353616438,42.6526650230358,4,29
2025-05-24 16:20:20.654,259.32,0,0,0,107.425174134318,-78.6971699444381,35.7289289210651,24.9424628859395,-0.178557038364097,-0.591961799264252,-0.0969431296771913,8.60299303462728,-4.91275522402954,0.0814965173136414,42.5629524378805,4,29
2025-05-24 16:20:21.647,260.97,0,0,0,108.416914965391,-78.6972241970891,35.7290056356863,24.9979243639271,-0.193624138633822,-0.589483382977414,-0.100629979302112,8.53830850346086,-4.98419894550089,0.0491542517304283,42.5864258537195,4,29
2025-05-24 16:20:22.666,261.81,0,0,0,109.435116707997,-78.6972812581407,35.7290837604748,25.0286183845319,-0.197816037294726,-0.585553296521472,-0.0806713508700096,8.51916050371975,-5.10351167079972,-0.0148093366397772,42.6945882248914,4,29
2025-05-24 16:20:23.684,262.65,0,0,0,110.452746914475,-78.6973392971235,35.7291622426112,25.0010835492959,-0.189508278802458,-0.585459628211513,-0.0642953899726114,8.62885709888172,-5.1690549382895,-0.0781098765789922,42.8051890123421,4,29
2025-05-24 16:20:24.690,263.89,0,0,0,111.457562671718,-78.6973967725848,35.7292403356447,24.9525756267172,-0.173553479323638,-0.583576283897732,-0.0543444870606081,8.7,-5.15254623969693,-0.0908487465656427,42.8002546239697,4,29
2025-05-24 16:20:25.701,264.73,0,0,0,112.46713410954,-78.6974536792297,35.7293190897471,24.9855609124629,-0.174419969611556,-0.583182008828551,-0.0497910419672088,8.67664329452298,-5.02657317809194,-0.0332865890459692,42.768504819318,4,29
2025-05-24 16:20:26.707,265.96,0,0,0,113.472371453949,-78.6975085191099,35.7293972560248,25.025975057625,-0.187894834810409,-0.583016356786259,-0.0622628727204624,8.65,-4.8396968528286,0.0247237145394943,42.7615080585133,4,29
2025-05-24 16:20:27.721,267.61,0,0,0,114.484975570195,-78.6975626976954,35.7294759795969,24.991382247542,-0.189994175407412,-0.58305719335205,-0.076283241804021,8.66939902280781,-4.85669462544295,-0.013647801317571,42.7686610749114,4,29
2025-05-24 16:20:28.730,268.45,0,0,0,115.492882612039,-78.6976177028498,35.7295545448437,24.9730800741103,-0.185674631908991,-0.584626509967754,-0.0713375605891531,8.66535586939803,-5.04393239180591,-0.0846441306019714,42.7415640564916,4,29
2025-05-24 16:20:29.747,268.98,0,0,0,116.509180715451,-78.6976748705466,35.7296336633416,24.9923072049755,-0.178898756136712,-0.584476379796691,-0.0579970504630461,8.66036722861805,-5.10981638569097,-0.0590819284548718,42.7446377107318,4,29
2025-05-24 16:20:30.757,269.82,0,0,0,117.518380211689,-78.6977311590736,35.7297123373326,24.997033026139,-0.18435098770914,-0.586615550423597,-0.070340494056116,8.67481619788311,-4.98077255131144,0.0314704169351498,42.6389931138517,4,29
2025-05-24 16:20:31.788,270.35,0,0,0,118.548079189959,-78.6977869770446,35.7297926953689,25.0203173462293,-0.201237806195586,-0.584314759818601,-0.0830875837963361,8.63711524860245,-4.76586495390775,0.157692670393473,42.4101341030692,4,29
2025-05-24 16:20:32.823,270.68,0,0,0,119.581589510784,-78.6978417334493,35.7298733221408,25.1873555259547,-0.211325854423501,-0.583904968625756,-0.109961238674869,8.55765694402947,-4.82539737769593,-0.0200834896369969,42.6988281512467,4,29
2025-05-24 16:20:33.824,270.68,0.53,0,0,120.582211553829,-78.6978971189432,35.7299504809627,25.3107331733074,-0.161307317636966,-0.583024081715409,-0.103490915631173,8.49671153784682,-5.19781731476154,0.0445288526083618,42.9404096143396,4,29
2025-05-24 16:20:34.839,270.68,0.53,0,0,121.596476728056,-78.6979550991735,35.7300263603349,25.1541618532406,-0.0409344911532315,-0.588290518261745,-0.0796262289095208,8.03860722123838,-5.01421966132456,0.0887751198276251,42.9961032186559,4,29
2025-05-24 16:20:35.856,271,0.53,0,0,122.612249690705,-78.6980072430853,35.7300958350049,24.9123663164985,0.063631548154351,-0.604446097784949,-0.0709594986684498,7.03591285568953,-4.17224029692344,0.0612249690704754,42.8509576020674,4,29
2025-05-24 16:20:36.873,271.53,0.53,0,0,123.628237058755,-78.6980485678289,35.7301539196219,24.8817719129355,0.0788547328251133,-0.615114160559529,-0.0871852218046686,5.65392678245447,-3.25343375888281,-0.0884711176266163,42.9805771940897,4,29
2025-05-24 16:20:37.890,271.85,0.53,0,0,124.644999015289,-78.6980799664727,35.7301991354607,24.8027051683857,0.082469136515632,-0.619762947537064,-0.0965882994648596,4.20345136874896,-2.40110080746341,-0.154850068929804,43.0801100807463,4,29
2025-05-24 16:20:38.896,272.17,0.53,0,0,125.65028701356,-78.6981028057403,35.7302310528355,24.8232858766951,0.100225433197813,-0.623344836906473,-0.0952173909242139,2.78659244074414,-1.70682205159251,-0.208034441627256,43.1257830065595,4,29
2025-05-24 16:20:39.903,273.41,0.53,0,0,126.654894772397,-78.6981180516741,35.7302497685268,24.8381846300145,0.131479096467677,-0.622031011459076,-0.064102700270779,1.28801099823282,-0.920241548014738,-0.0731784114528497,43.0225780448451,4,29
2025-05-24 16:20:40.929,274.64,0.53,0,0,127.679686782401,-78.6981234874989,35.7302552117181,24.665312666483,0.0421533049582867,-0.604311303797532,-0.045283485070361,0.00554767153486108,-0.0490631027831381,-0.0683592817121334,42.7634845687517,4,29
2025-05-24 16:20:41.934,275.87,0.53,0,0,128.682356136317,-78.6981225670521,35.730253384696,24.7738714445329,-0.0574350260911405,-0.59814866605267,-0.0471389031730844,-0.302235070457833,0.151764386368333,-0.2123534204475,42.7131648752248,4,29
2025-05-24 16:20:42.985,277.1,0.53,0,0,129.732890468407,-78.6981218267109,35.7302514472424,24.9747966940083,-0.0712259471761033,-0.600397738601824,-0.0363868609319962,-0.0381461454256465,0.0393820484752155,-0.0694484782141458,42.6933554765796,4,29
2025-05-24 16:20:43.966,277.31,0.53,0,0,130.713524327113,-78.6981220854097,35.7302513140573,25.0077241837475,-0.0624979674566456,-0.190764506310404,-0.0463052838890701,0.085676216355642,-0.0114057298133852,-0.035676216355642,42.6614483674951,4,29
2025-05-24 16:20:44.998,277.31,0.53,0,0,131.745202549044,-78.6981213057569,35.7302528158848,24.9451289986255,-0.0368173986634216,0.739321157479361,-0.026120502283625,0.278848611770587,0.300437096088968,-0.11706822941397,42.6621972280395,4,29
2025-05-24 16:20:46.015,277.31,1.06,0,0,132.761687637366,-78.6981170392243,35.730255889738,24.9912668244508,0.0541395198392012,1.45708635543395,0.0104757041147426,0.240980607142465,0.554720651099474,-0.0638312362634347,42.8653238486272,4,29
2025-05-24 16:20:47.032,277.31,1.6,0,0,133.778030052552,-78.6981131546978,35.7302584116661,24.921748513904,0.0359448918533189,2.35806932637343,0.0636663184792969,0.22556060105103,0.140962268994612,-0.0789015026275753,42.5506554245125,4,29
2025-05-24 16:20:48.051,277.31,1.92,0,0,134.795447989931,-78.6981134340824,35.7302590590896,25.1545205967277,-0.0318488027267917,-1.93378618830358,0.0988612160084862,-0.104088155771205,-0.276361276375319,-0.0104552010068558,42.9345868577776,4,29
2025-05-24 16:20:49.057,277.31,1.92,0,0,135.800498194967,-78.6981167418931,35.7302570987545,25.1105312490945,-0.0119397833703199,-2.32470614124796,0.0472948089597393,-0.2220199277987,-0.3179800722013,0.258154440439922,42.519062722007,4,29
2025-05-24 16:20:50.082,277.52,1.92,0,0,136.824199403436,-78.6981193956586,35.7302549516012,24.9395893038021,-0.0378312946711563,-1.62752996637424,-0.00359653196949181,-0.172306041759484,-0.112192143175375,-0.00143776734001591,42.5265864967944,4,29
2025-05-24 16:20:51.087,277.52,1.92,0,0,137.828539706936,-78.6981192200222,35.7302525286507,24.9578838427092,-0.0580942862713436,-0.719153078974287,-0.0409893960816954,-0.234568573624246,0.128849529664655,0.0294247648323276,42.2545830069683,4,29
2025-05-24 16:20:52.108,277.52,1.92,0,0,138.848312794438,-78.6981180820246,35.7302510820246,25.0401065875273,-0.0655958513391093,-0.561473650904922,-0.0673790998960721,-0.0294386734460494,0.0342699528898765,-0.0772469191657408,42.5499879992529,4,29
2025-05-24 16:20:53.120,277.84,1.92,0,0,139.858363078152,-78.6981188441994,35.7302515866905,25.1826128248009,-0.00738784878829727,-0.57730183635866,-0.069256044610897,0.0185836307815191,-0.101587200159748,-0.0828327384369618,42.9230107081347,4,29
2025-05-24 16:20:54.126,278.38,1.92,0,0,140.862884623255,-78.6981205531923,35.7302512685577,24.966706728605,-0.0263064755864347,-0.580849531899646,-0.0583547697394549,-0.161205770883469,-0.059598076372177,0.170236540743838,42.6478296124098,4,29
2025-05-24 16:20:55.151,279.22,1.92,0,0,141.886061176038,-78.6981201797572,35.7302504911511,24.8253308424035,-0.0579878248290661,-0.575992684154727,-0.0802133943013729,-0.00392715303194585,0.153794070488821,-0.0646789645718895,42.5401781459096,4,29
2025-05-24 16:20:56.177,279.54,1.92,0,0,142.910934455226,-78.6981180048508,35.7302508554672,25.0206039902467,-0.0641184801678147,-0.576593065464774,-0.102653998115911,0.10198410097033,0.207328033656777,-0.0726719663432232,42.6013200841419,4,29
2025-05-24 16:20:57.188,280.38,1.92,0,0,143.920701081966,-78.6981161427381,35.7302521889815,25.0474449075738,-0.0886964771043623,-1.06442346837928,-0.0982654229598345,0.156035054098295,0.0626878268854549,0.104933205573522,42.472656940951,4,29
2025-05-24 16:20:58.205,280.7,1.92,0,0,144.936109430866,-78.6981156255562,35.7302523936109,24.9356668682961,-0.08957597719681,-2.10248939059429,0.0221113524491912,-0.0459440747905347,0.0593610943086607,0.00766686829607198,42.4862749546334,4,29
2025-05-24 16:20:59.236,280.7,1.92,0,0,145.965986938585,-78.6981155034013,35.7302499850327,25.013972837534,-0.339426977200746,-2.53449775151394,0.080533788889726,-0.823129681481804,-0.287755297890442,0.135238171401839,42.0735916033472,4,29
2025-05-24 16:21:00.241,281.23,1.92,0,0,146.970569358944,-78.6981279232878,35.7302331091501,25.0373819565378,-0.325627063527672,-2.51101258702997,0.0722237747703164,-2.79113871788772,-1.89173374866793,0.00412028974785949,42.3123186026843,4,29
2025-05-24 16:21:01.222,281.55,1.92,0,0,147.950544126491,-78.698155485562,35.7302006617173,25.1149940742457,-0.37271101003888,-2.5096622588436,0.0422342427145511,-4.75108825298136,-3.08065295178881,-0.0190108825298136,42.3599228533126,4,29
2025-05-24 16:21:02.268,281.76,1.92,0,0,148.996214860842,-78.6981987410242,35.7301470972058,25.1140189256958,-0.406840701207359,-2.50486641439133,0.0243250238951253,-6.82250542446705,-4.45500361631137,0.209129417993647,42.1258970779805,4,28.0037851391581
2025-05-24 16:21:03.276,281.97,1.92,0,0,150.003212560773,-78.6982530754058,35.7300781590579,25.1333405314419,-0.302675694774561,-2.51531172815726,0.000884081938744936,-8.0123130437564,-4.92987149756909,0.190449758508188,41.942565410696,4,28.9967874392272
2025-05-24 16:21:04.307,281.97,1.92,0,0,151.033758414133,-78.6983093195785,35.7300006588168,25.2303916043962,-0.285271610881519,-2.51498300531768,0.009858443657684,-8.74249061322908,-4.88898724757602,0.318522139194901,42.1287351756942,4,28.0337584141326
2025-05-24 16:21:05.311,282.18,1.92,0,0,152.036555405582,-78.698363341092,35.7299192170789,24.9848407743284,-0.247792022590077,-2.50763382220155,0.0534780391608549,-9.09744112160924,-4.86109666216747,-0.0118277702791135,42.4318692391692,4,29
2025-05-24 16:21:06.328,282.72,1.92,0,0,153.05188183027,-78.6984173379361,35.7298364079481,25.0049766086195,-0.257885587164785,-2.50848481858693,0.0952295839561978,-9.02481181697298,-4.90504573077834,-0.0496236339459741,42.3079023873914,4,29
2025-05-24 16:21:07.348,283.25,1.92,0,0,154.071429570402,-78.6984734072017,35.7297541570639,24.9819287662283,-0.245565779671441,-2.50801414627928,0.097509555115146,-8.91642838162369,-5.20285746252852,0.12857126873574,42.0467144915027,4,29
2025-05-24 16:21:08.348,284.09,1.92,0,0,155.070644164393,-78.6985323457143,35.7296753109484,25.1541694794509,-0.239441689428483,-2.50299618273155,0.077850986383705,-8.72940337534109,-5.49364202520465,-0.0108162586289416,42.2413202757265,4,29
2025-05-24 16:21:09.376,285.32,1.92,0,0,156.097821243673,-78.6985939616712,35.7295955775464,25.0346740777151,-0.222220259161847,-2.4951693177262,0.0566155973044781,-8.58608715025306,-5.39923966319592,0.0865229015183755,42.3023143601302,4,29
2025-05-24 16:21:10.393,285.85,1.92,0,0,157.113336589644,-78.6986537981925,35.7295174050806,25.0200937957294,-0.222982479615532,-2.49659995981308,0.0381310712497047,-8.57266731792879,-5.29659990231068,-0.115266243346288,42.4703869076337,4,29
2025-05-24 16:21:11.409,286.69,1.92,0,0,158.128630983191,-78.6987133261565,35.7294386439619,25.1140995161687,-0.210122335167301,-2.4996320294256,0.0303325267555592,-8.73199166235329,-5.20954343790032,0.0308714359657938,42.4862198095052,4,29
2025-05-24 16:21:12.405,287.92,1.92,0,0,159.123802364081,-78.6987683596091,35.7293615186551,24.9083993985828,-0.218196170732547,-2.50093809835921,0.0643376500006972,-8.61866616548569,-4.80495209456325,0.204097314416418,42.1858931044962,4,29
2025-05-24 16:21:13.453,289.16,1.92,0,0,160.171296795986,-78.6988252958599,35.7292795018125,24.9710370050569,-0.221933214825688,-2.49885140205949,0.0790024253997425,-8.66115735244149,-4.88282419899662,-0.0482870320401351,42.4225045581739,4,29
2025-05-24 16:21:14.456,290,1.92,0,0,161.173256070784,-78.6988792795497,35.7292008766082,24.9254500110437,-0.206855937494519,-2.47728745994995,0.084174647808024,-8.55440695362948,-5.11945353203321,-0.0140115893824631,42.2665766887107,4,29
2025-05-24 16:21:15.476,290.53,1.92,0,0,162.192800265494,-78.6989382944957,35.7291225700597,24.9496247843358,-0.201122032551963,-2.47771182291206,0.0311726560733362,-8.4665039814154,-5.31591207699336,0.0675839415912466,42.1016888188501,4,29
2025-05-24 16:21:16.481,290.53,1.92,0,0,163.197778783365,-78.6989982227288,35.7290459874797,24.9419513142398,-0.17206137250075,-2.47682035186427,0.00158315975472301,-8.42582230266924,-5.54011106083173,-0.121866727001927,42.2220914318936,4,29
2025-05-24 16:21:17.501,290.53,1.92,0,0,164.216860826359,-78.6990608116496,35.7289684981112,25.1022651133891,-0.161692601809992,-2.48292303359931,-0.0562615397027222,-8.55505824790773,-5.43711036035586,-0.156988350418454,42.5289622941944,4,29
2025-05-24 16:21:18.537,290.85,1.92,0,0,165.251608571588,-78.69912189008,35.7288872480837,25.0665617971242,-0.122862716794601,-2.48543428420914,-0.0454983807369046,-8.77490348570469,-5.09174397135344,-0.0596782856823136,42.6792844514072,4,29
2025-05-24 16:21:19.533,291.17,1.92,0,0,166.24678777005,-78.6991765589277,35.7288088271601,24.9523469208346,-0.120361886192509,-2.48646602125868,-0.0194903734354255,-8.70532122299499,-4.69804607909149,0.0579175898934889,42.5674009748076,4,29
2025-05-24 16:21:20.543,291.38,1.92,0,0,167.255136859728,-78.6992285119798,35.7287300544618,24.8684486314027,-0.144465927584484,-2.48525160639916,0.00525134460036452,-8.58152399665168,-4.55979452561088,-0.0527568429864007,42.5072517246064,4,29
2025-05-24 16:21:21.574,291.38,1.92,0,0,168.285276708183,-78.6992813914442,35.7286511045532,24.8869601804447,-0.162974844357711,-2.48407312822002,0.0179272215675237,-8.42003063042716,-4.62128854661871,-0.0671778633453226,42.407042882598,4,29
2025-05-24 16:21:22.580,291.59,1.92,0,0,169.290331542508,-78.6993348134006,35.7285750799685,24.9694198925505,-0.183420971552718,-2.48314091352792,0.0171432877547802,-8.39032320797557,-4.93709946275244,-0.0361298388257307,42.3892596776515,4,29
2025-05-24 16:21:23.609,291.59,1.92,0,0,170.31933877853,-78.6993927855169,35.7284971025173,25.0401018125106,-0.180701620668527,-2.48427121982982,0.00137990869621868,-8.48470742899417,-5.19151404120887,-0.0680661221470204,42.5313702450338,4,29
2025-05-24 16:21:24.606,291.59,2.13,0,0,171.315029992115,-78.6994511127815,35.7284206536726,25.0902340702444,-0.163213538429973,-2.48177377989298,-0.0216059738794908,-8.63985569850189,-5.29575149960576,0.0535550986595868,42.5191559210723,4,29
2025-05-24 16:21:25.627,291.59,2.13,0,0,172.334823128851,-78.6995115210823,35.7283410824551,25.0612990680364,-0.13888014379422,-2.48052092754285,-0.0378351398610483,-8.74656238098047,-5.29316945582645,0.0896424490758838,42.4993262652183,4,29
2025-05-24 16:21:26.652,291.91,2.13,0,0,173.359763804309,-78.6995708827494,35.7282606823288,25.0107431471777,-0.12997538325719,-2.48169083105106,-0.0394609963221149,-8.66402361956907,-5.09048503044866,0.0379291412927811,42.5273572359909,4,29
2025-05-24 16:21:27.651,292.12,2.13,0,0,174.357659548771,-78.6996255413603,35.7281834244488,24.9758974448041,-0.149075659272034,-2.48761581815771,-0.0242724546159325,-8.56781064061063,-4.78846809024586,0.122702135368786,42.3852399951689,4,29
2025-05-24 16:21:28.676,292.12,2.45,0,0,175.381067769563,-78.6996789774172,35.7281047864224,25.0332402876217,-0.187244777383479,-2.48440566153186,-0.00160699914206734,-8.51,-4.70572813234755,-0.0433252561305969,42.4972354413,4,29
2025-05-24 16:21:29.703,292.45,2.45,0,0,176.407071877559,-78.6997333668317,35.7280261554654,25.027495909265,-0.20052089795291,-2.483805501531,0.00232348952753082,-8.55070718775589,-4.89398012571649,0.0366364689803005,42.4361867340807,4,29
2025-05-24 16:21:30.714,292.45,3.68,0,0,177.418368081452,-78.6997895214702,35.7279481183105,24.9919591660451,-0.198802413635592,-2.48584415136371,-0.00636750804404535,-8.60163263837096,-5.08510208488712,0.0690815959274018,42.3537754852306,4,29
2025-05-24 16:21:31.716,292.45,4.91,0,0,178.419600006798,-78.6998463752404,35.7278707068795,25.0182816006526,-0.209735563294154,-2.48662941293087,-0.00704571420362361,-8.56062799952417,-5.12419600006798,0.0316079998640499,42.342392000136,4,29
2025-05-24 16:21:32.743,292.45,5.75,0,0,179.446387666255,-78.6999047548194,35.7277917067048,25.0864988546551,-0.220249765097703,-2.48638487159487,-0.00989983191163756,-8.57803039661314,-5.1478555066502,0.0333916299876471,42.3633741409914,4,29
2025-05-24 16:21:33.738,292.45,6.59,0,0,180.440452631958,-78.6999614819811,35.7277149446947,25.0835009894578,-0.215741238313425,-2.48710722647999,-0.0137163828778607,-8.68083168423704,-5.14797736840212,0.0764271579174612,42.3402042420753,4,29
2025-05-24 16:21:34.751,292.45,7.43,0,0,181.452026414089,-78.7000186422633,35.727636765182,25.1137911432766,-0.165263039415181,-2.4891140108092,-0.00409662151504794,-8.47590573639202,-4.96631101920979,0.069317622732004,42.3882133884741,4,29
2025-05-24 16:21:35.774,292.45,7.97,0,0,182.474132985241,-78.7000725644094,35.7275618529309,25.1315867014759,-0.0736298651653406,-2.48939417994614,0.0141589311021233,-7.72483233416825,-4.50026153870757,-0.00370664926207039,42.5521546283766,4,29
2025-05-24 16:21:36.790,292.45,8.81,0,0,183.489415170423,-78.7001196959108,35.7274958840313,25.0736164331253,-0.0125787153230483,-2.48538687329839,0.0268942951680289,-6.65227840230949,-3.92082165626743,-0.0397883034084571,42.6711768963029,4,29
2025-05-24 16:21:37.833,292.45,10.04,0,0,184.532462391924,-78.7001606089074,35.7274389963578,24.9694944574941,0.0388413767354914,-2.48569922558973,0.0249378690005892,-5.34650039482233,-3.20870546254186,-0.0233768804038183,42.7110391923634,4,29
2025-05-24 16:21:38.836,292.45,10.57,0,0,185.534221218285,-78.7001907623747,35.7273964543477,24.8370569752275,0.0784055729624472,-2.49151445155853,0.0316804952056136,-3.97209029440133,-2.31714763044662,-0.00534221218284767,42.5724713319774,4,29
2025-05-24 16:21:39.853,292.45,11.1,0,0,186.550509232301,-78.7002113631986,35.7273663978803,24.7463531506283,0.0996227811861118,-2.48968895548602,0.0482775023112354,-2.5052463361942,-1.4626231680971,-0.103586569491207,42.4033883828915,4,29
2025-05-24 16:21:40.884,292.45,11.42,0,0,187.579958630475,-78.7002231816732,35.7273497264261,24.7809745805922,0.103296257081606,-2.47897801261921,0.0492671037582833,-1.02805791733479,-0.700830613448388,-0.174200413695248,42.3652388416533,4,29
2025-05-24 16:21:41.910,292.45,11.42,0,0,188.604057809062,-78.7002276477098,35.7273450375653,24.8716394107347,0.0403870992379197,-2.47779912186061,0.033051368792264,-0.0473624241093918,-0.190660923009384,-0.109594219093753,42.3522336298284,4,29
2025-05-24 16:21:42.932,292.45,11.42,0,0,189.623379981093,-78.700228649352,35.727345672732,24.9411301186009,0.00226771925852739,-2.47765837873606,0.0285112560377473,0.178831000945333,-0.0288310009453334,-0.0575324003781334,42.3441039397542,4,29
2025-05-24 16:21:43.937,292.45,11.75,0,0,190.627233900527,-78.7002288,35.727347642638,25.0028706306285,-0.0037267928847791,-2.44443266104613,0.0213154960238102,0.235268068063267,0.0652680680632668,-0.0374553219894555,42.1771379112555,4,29
2025-05-24 16:21:44.952,292.45,12.07,0,0,191.641619334502,-78.700227837571,35.7273505531819,25.0383988640281,-0.0127697831016261,-1.76337225637338,-0.00528632797447535,0.35057812679525,0.238323866900455,0.0213295467601821,42.1770174741859,4,29
2025-05-24 16:21:45.963,292.45,12.6,0,0,192.651297612122,-78.7002248250691,35.7273540446714,25.0717493092606,-0.0182253054769421,-0.998755543027564,-0.0617983428952891,0.350922143272663,0.368616785091006,-0.00861678509100596,42.0607548351755,4,29
2025-05-24 16:21:47.006,292.45,12.6,0,0,193.692432334634,-78.700222322865,35.7273564078917,25.0233735222176,0.0168628299837395,-0.0788113535380535,-0.0602204700578915,0.149967592995209,0.261513533073238,0.146956730351129,42.0732497148643,4,29
2025-05-24 16:21:48.005,292.45,12.6,0,0,194.691341226153,-78.7002209703905,35.7273568308659,25.0354064498907,0.05449306046119,0.617972439225512,-0.0348947162743152,-0.0820950697536776,0.2,0.0156842198925451,42.0398044177662,4,29
2025-05-24 16:21:49.046,292.45,12.92,0,0,195.731964560963,-78.7002205268035,35.7273555556602,24.9922469414401,0.0733354443785281,1.53374901538859,-0.00102802875938765,-0.186598228048146,0.0243285053689003,0.0956714946310997,42.1079389676567,4,29
2025-05-24 16:21:50.066,292.45,14.15,0,0,196.751019653872,-78.7002217767334,35.7273540485725,25.0195672971556,0.0535852379132652,2.2397158632735,0.0364450437101616,-0.147428624228954,-0.152652948080813,-0.0202447169293009,41.9252002217616,4,29
2025-05-24 16:21:51.079,292.45,14.69,0,0,197.762423742342,-78.7002238010899,35.7273531663034,25.1137672217189,0.0182681088583513,-1.63220014405539,0.039713165785905,-0.0308849134955701,-0.212872712270253,0.0496120361981006,42.1920409890844,4,29
2025-05-24 16:21:52.101,292.45,15.53,0,0,198.783126657444,-78.7002258662533,35.72735417469,25.0283622679578,-0.0173631626451469,-2.51808601641669,0.0166798947773349,0.289756863254309,-0.22,0.105662533148882,42.2408317540066,4,29
2025-05-24 16:21:53.084,292.45,16.76,0,0,199.765303494091,-78.7002279071373,35.7273554948945,24.9406022379432,-0.0402460929444231,-2.45137146137815,-0.0255742690203287,0.0485725324819245,-0.151122685531841,-0.0583667686999443,42.2999997424209,4,29
2025-05-24 16:21:54.111,292.45,17.29,0,0,200.789951097096,-78.7002288739706,35.727353667132,24.9648674081461,-0.0278745314682012,-2.46647729928977,-0.00858203541297881,-0.318583373012664,-0.0431053793194321,-0.0784019561161571,42.3861960877677,4,29
2025-05-24 16:21:55.120,292.45,17.61,0,0,201.79761557809,-78.7002284416691,35.7273500690608,24.9456906080326,-0.0130720969661356,-2.46609903922532,0.0234296231748658,-0.326190753752795,0.107618492494411,-0.046071532657298,42.3543454497365,4,29
2025-05-24 16:21:56.133,292.45,17.93,0,0,202.808524846751,-78.7002268446553,35.7273475212453,24.915361304291,-0.00392755539566379,-2.46069570132519,0.0486579274739659,-0.0997835398447396,0.10765900612996,0.0246819877400801,42.2231468475276,4,29
2025-05-24 16:21:57.143,292.45,18.47,0,0,203.817604877196,-78.7002255188741,35.7273470182395,24.9672323414037,0.00684860089421347,-2.49403182213368,0.0573282543654226,0.0726407315793419,0.0427676585963071,-0.0172323414036929,42.0347494440697,4,29
2025-05-24 16:21:58.151,292.45,19.31,0,0,204.825277149898,-78.7002246397783,35.7273479903326,25.0493232805914,0.00864980932565802,1.83561105762514,0.019961126746882,0.0752416855030668,0.0465055429979555,-0.00524168550306679,42.1789104186777,4,29
2025-05-24 16:21:59.204,292.45,19.52,0,0,205.876728241783,-78.7002229218892,35.7273488137098,25.0219170443944,0.0344292943336703,2.11614926168809,-0.00444542764180733,0.087534564835661,0.190276518685288,0,42.2362880213192,4,29
2025-05-24 16:22:00.214,292.45,20.75,0,0,206.885348899697,-78.7002164140228,35.7273486343953,24.9841274396109,-0.188856336311985,2.06277331076103,0.0255068368808771,-0.503183762796751,1.36095356960564,0.0354139559878658,42.1177072007416,4,29
2025-05-24 16:22:01.237,292.45,21.98,0,0,207.907404409913,-78.7001911000809,35.7273375296662,24.9636667206216,-0.235278613603811,2.08239904524058,0.0409006809485525,-2.0046249235639,3.21592029063703,-0.0144442645947988,42.1029074044099,4,29
2025-05-24 16:22:02.227,292.45,22.51,0,0,208.896241067103,-78.7001463870457,35.727312918484,24.9216691519803,-0.278922412662902,2.08467002957698,0.0349939106274093,-3.52124883266831,5.04804597414142,-0.0379248213420694,42.0151683754239,4,29
2025-05-24 16:22:03.248,292.45,23.04,0,0,209.917261345024,-78.7000774751581,35.7272727757371,24.9894636462569,-0.280931360962482,2.07327505639193,0.00770368650273389,-5.1109276982375,7.34970109355529,-0.0308273865497596,41.9958273865498,4,29
2025-05-24 16:22:04.268,292.45,23.58,0,0,210.935981437755,-78.6999875552687,35.7272219457411,25.1672846031091,-0.109220855222402,2.06781980696327,-0.0159269697112405,-5.65183183261203,8.44790199462198,-0.0112803712449075,42.3338252804672,4,29
2025-05-24 16:22:05.289,292.45,24.42,0,0,211.956280891597,-78.6998900926625,35.7271699296745,25.0479895178511,-0.0666964104940923,2.06928334128986,-0.00218161714157766,-5.5652462930083,8.69169336940352,0.200381796151447,42.1600061363309,4,29
2025-05-24 16:22:06.301,292.45,24.74,0,0,212.967454312071,-78.6997925406589,35.7271200045024,24.9868551042119,-0.0596448884795895,2.0696191798375,0.0316740398739127,-5.45358002567215,8.62260365503429,-0.0608872073799927,42.2061448957881,4,29
2025-05-24 16:22:07.326,292.45,25.27,0,0,213.991957091161,-78.6996951640763,35.7270700916897,25.0911394087543,-0.0496577836358184,2.06237285715855,0.0405305096028947,-5.47975871273484,8.48112600723742,-0.060080429088387,42.3994477185941,4,29
2025-05-24 16:22:08.336,292.45,25.59,0,0,215.000775189927,-78.6996011289926,35.7270204605428,25.0819635660735,-0.0731040333825773,2.06125349867338,0.0612581482059471,-5.54017054178384,8.33996899240294,0.129968992402939,42.2719782946821,4,29
2025-05-24 16:22:09.346,292.45,25.91,0,0,216.009666503144,-78.6995087145483,35.7269691031417,25.0351933300629,-0.0655353658950405,2.06587054244875,0.0328565973009693,-5.75971000490569,8.29971000490569,0.0895166748428132,42.2441933300629,4,29
2025-05-24 16:22:10.377,292.45,25.91,0,0,217.040091387425,-78.6994143276289,35.7269161633575,25.0534364358904,-0.0592286631929754,2.07326709901219,0.0331266346356916,-5.7255899473833,8.26959908612575,0.0391981722515092,42.2619152478539,4,29
2025-05-24 16:22:11.376,292.45,25.91,0,0,218.03775176495,-78.6993229230625,35.7268654859855,25.0149051988164,-0.0575947448696057,2.07771098615286,0.0228090792773452,-5.619244964701,8.26302014119601,0.0196224823504983,42.2111317094061,4,29
2025-05-24 16:22:12.381,292.45,25.91,0,0,219.041508163239,-78.6992304853998,35.7268146245918,24.9878301632648,-0.0488378551218594,2.07568582636871,0.0255807843873156,-5.59916983673522,8.33916983673522,0.0116603265295519,42.1876302306131,4,29
2025-05-24 16:22:13.416,292.66,25.91,0,0,220.075015667621,-78.6991354760539,35.7267628892041,25.0063248589914,-0.0517636068698312,2.07592548925573,0.0347897591332805,-5.58150031335241,8.31699937329518,0.043998746590356,42.1573502820172,4,29
2025-05-24 16:22:14.424,292.98,25.91,0,0,221.083341990339,-78.6990425242131,35.7267116995637,24.9973332640773,-0.0358549019045833,2.07487977429721,0.0254007522541351,-5.59833316019322,8.27583290048306,-0.0233326407728973,42.1672492987826,4,29
2025-05-24 16:22:15.435,292.98,25.91,0,0,222.093277781108,-78.698950665083,35.7266608361109,24.9968092780209,-0.0536024038551281,2.07366976058352,0.0193054821133235,-5.56880666626701,8.23652944467758,0.0388066662670104,42.1055925004496,4,29
2025-05-24 16:22:16.472,292.98,25.91,0,0,223.129096177867,-78.6988558618805,35.7266091484681,25.0578361528853,-0.0431861243551593,2.07288379301728,0.0243789595578786,-5.46129096177867,8.31290961778666,-0.0415988408693482,42.209668342743,4,29
2025-05-24 16:22:17.482,292.98,25.91,0,0,224.138630246436,-78.698763065798,35.7265593684877,25.0085824543707,-0.0592714677207706,2.07029622063441,0.0274129629544429,-5.47970411725051,8.40277260492872,0.118115043319767,42.0939019240468,4,29
2025-05-24 16:22:18.490,293.3,25.91,0,0,225.144935650244,-78.6986694238944,35.7265090532175,24.936247342379,-0.0171683103498983,2.07267873569899,0.032151216821934,-5.54,8.40260772197073,-0.0684051479804875,42.149522104261,4,29
2025-05-24 16:22:19.500,293.3,25.91,0,0,226.152654038333,-78.6985772390133,35.7264586215019,25.0299093359684,-0.0330508807768376,2.07480952103956,0.0237362543121045,-5.5461061615333,8.28015497501676,-0.00305308076665224,42.1899845024983,4,29
2025-05-24 16:22:20.532,293.3,25.91,0,0,227.183732767593,-78.6984838007975,35.7264067766151,24.9723224390361,-0.0382306184274361,2.07276162295127,0.00809068179345309,-5.57448801697221,8.17551198302779,-0.02,42.1894248356416,4,29
2025-05-24 16:22:21.519,293.3,25.91,0,0,228.170094466397,-78.6983950724319,35.726357346305,24.9280767071142,-0.0611320261134737,2.07339567210708,-0.00920787884387364,-5.52958866403233,8.21190661264781,-0.0404113359676689,42.1699777596827,4,29
2025-05-24 16:22:22.559,293.62,25.91,0,0,229.209272496426,-78.6983004841486,35.7263059712112,24.9782105551501,-0.0678111625236416,2.06342680311766,-0.0074668390061789,-5.42162910014296,8.31603994921371,-0.114887300428884,42.3121880152359,4,29
2025-05-24 16:22:23.563,293.62,25.91,0,0,230.21275770594,-78.6982074582241,35.7262572535966,24.9462765462356,-0.0682880334698686,2.05636962954722,0.0158517005440431,-5.42616881000977,8.50702061647519,-0.0178724229406014,42.2602127577059,4,29
2025-05-24 16:22:24.583,293.83,25.91,0,0,231.231599204657,-78.6981112980756,35.72620695056,24.9398832381765,-0.0514882304501409,2.06054556675921,0.0270906820531171,-5.58547591251227,8.58389595227942,-0.0238959522794206,42.2415456668088,4,29
2025-05-24 16:22:25.593,294.04,25.91,0,0,232.241011004649,-78.69801574137,35.7261559120344,24.921557847358,-0.035585396634924,2.0710048150947,0.0362525836141053,-5.67241011004649,8.5649270287448,-0.0434887894886214,42.1613342846978,4,29
2025-05-24 16:22:26.626,294.36,25.91,0,0,233.273313863275,-78.6979193911363,35.7261029883244,24.9895659852146,-0.0475014709472962,2.07650035352416,0.0173127933763408,-5.65540175230528,8.35453372273451,0.04,42.1106334306836,4,29
2025-05-24 16:22:27.623,294.57,25.91,0,0,234.268944346938,-78.6978273571201,35.7260525796771,25.0147310556531,-0.0279604620432139,2.07939820590163,0.0168317145335006,-5.56310556530616,8.32924222612247,0.0426894434693835,42.0932838383061,4,29
2025-05-24 16:22:28.630,294.57,25.91,0,0,235.275497580795,-78.6977347817723,35.726002545519,25.0054595749954,-0.0249576662456119,2.07781893494358,0.0231545472464307,-5.4844900483841,8.3055099516159,0.044490048384099,42.0444291016066,4,29
2025-05-24 16:22:29.625,294.57,25.91,0,0,236.269801129094,-78.6976433243359,35.7259534908839,24.9808415909672,-0.0128871856246874,2.07671892542884,0.0276078604422587,-5.48349005645471,8.30650994354529,0.0111139209634084,42.0242524429056,4,29
2025-05-24 16:22:30.664,294.57,25.91,0,0,237.308472110073,-78.6975479907324,35.7259018689361,24.9759254163302,-0.0042931029822631,2.0767880171389,0.0317289915766387,-5.52308472110073,8.23606806789201,-0.0307458366978199,42.0408950040374,4,29
2025-05-24 16:22:31.672,294.57,25.91,0,0,238.315883329002,-78.6974567705004,35.7258517058335,24.977368233342,-0.0126258493515336,2.07709797435862,0.0243310678764054,-5.53,8.15052350012995,-0.0131588332900182,42.017895299974,4,29
2025-05-24 16:22:32.692,294.57,25.91,0,0,239.335113966162,-78.6973648721861,35.7258007778131,24.9763351139662,-0.0192920391968667,2.07585640687409,0.0173183605442534,-5.53335113966162,8.16016025695461,-0.0166488603383768,42.0176435184399,4,29
2025-05-24 16:22:33.686,294.57,25.91,0,0,240.327766617486,-78.6972747093545,35.7257512444458,24.9825720324973,-0.0253100566554291,2.07423476688478,0.0183231510086703,-5.53344466765028,8.24949899557373,-0.01,42.0135887326448,4,29
2025-05-24 16:22:34.727,294.9,25.91,0,0,241.368482605788,-78.6971793364485,35.7256994232628,25.0076338564142,-0.0260682057806114,2.07441640804127,0.0213422179649628,-5.49789104365271,8.30631517394212,-0.00631517394211828,42.0174727609132,4,29
2025-05-24 16:22:35.734,294.9,25.91,0,0,242.374727233488,-78.6970868625672,35.7256494385838,25.0482374527405,-0.0306314382024183,2.07677727182701,0.0250198913837541,-5.48997817867905,8.28501091066047,0.0337254510139323,41.9922614561935,4,29
2025-05-24 16:22:36.762,295.22,25.91,0,0,243.401851015079,-78.6969927110023,35.7255982074492,25.0850370203016,-0.0379288565190997,2.07947424346271,0.0201765479741935,-5.55205553045238,8.28009255075396,0.0739259593968306,41.9941295710555,4,29
2025-05-24 16:22:37.773,295.75,25.91,0,0,244.412291851532,-78.6969000454621,35.7255475204907,25.0937016651877,-0.0356818895520672,2.07564350024596,0.0108685522244784,-5.55763124445404,8.32236875554596,0.0293854074233958,42.0953700266206,4,29
2025-05-24 16:22:38.789,296.07,25.91,0,0,245.427655158085,-78.6968058997738,35.7254966455386,25.0603471044083,-0.0347631145573963,2.06837474412685,0.00654257500119852,-5.48868138102982,8.39559517055103,-0.00427655158084843,42.1996721372719,4,29
2025-05-24 16:22:39.802,296.91,25.91,0,0,246.438655151757,-78.6967116173398,35.7254467058976,24.9991899321086,-0.0407811892337014,2.06397225921861,0.0357482695882192,-5.46386551517572,8.38226896964856,0.0294789636581473,42.1742386920927,4,29
2025-05-24 16:22:40.826,297.75,25.91,0,0,247.461561126648,-78.6966178518108,35.7253958911631,24.9247670095885,-0.0496375284932928,2.06787721480411,0.0393343040120109,-5.59846539153016,8.19615021973632,0.00153460846983566,42.100153460847,4,29
2025-05-24 16:22:41.846,298.28,25.91,0,0,248.481147257501,-78.696526341091,35.7253440171457,24.9066426025401,-0.0668522622066265,2.07130885264049,-0.00176829332214069,-5.69,8.20141797892523,-0.061131164549927,42.1001417978925,4,29
2025-05-24 16:22:42.854,298.61,25.91,0,0,249.488133441936,-78.6964342083365,35.7252927004478,24.9708473393065,-0.0569937326777876,2.07496186985843,-0.00773401770710146,-5.61677998370953,8.42691469490348,-0.03,42.1060949324645,4,29
2025-05-24 16:22:43.858,299.14,25.91,0,0,250.491140922831,-78.6963398398405,35.7252423902961,25.0201190596817,-0.0336375230119002,2.07790598115371,0.00706476510005312,-5.49579731694521,8.54526577231507,-0.000531544630143359,42.0848100677009,4,29
2025-05-24 16:22:44.863,299.67,25.91,0,0,251.495939628823,-78.6962452296447,35.7251927493642,25.0355527848253,-0.0291197725170675,2.07412372036929,0.0164522645964192,-5.43512181113531,8.47048724454122,0.0250406037117686,42.0709675170306,4,29
2025-05-24 16:22:45.877,299.99,25.91,0,0,252.508116051191,-78.6961510484537,35.7251430006903,25.0101997061059,-0.0252839906764442,2.06926595435818,0.0202023447509291,-5.44540580255954,8.35410723436902,0.00983767897618583,42.0953246420476,4,29
2025-05-24 16:22:46.889,300.52,25.91,0,0,253.520090728778,-78.6960580677255,35.7250931595271,24.9847187297971,-0.0273785946898464,2.06668380098091,0.0219229603963825,-5.50120544372667,8.28439727813666,-0.0156027218633373,42.1352835384223,4,29
2025-05-24 16:22:47.911,301.06,25.91,0,0,254.540435077458,-78.6959651204079,35.7250424782461,24.9861065261619,-0.0390513061219889,2.06894119688956,0.0270327830985221,-5.53,8.23216954457791,-0.0245956492254159,42.1718343575561,4,29
2025-05-24 16:22:48.908,301.27,25.91,0,0,255.537104278168,-78.6958746920628,35.7249925373652,24.9784981844895,-0.0390038615553621,2.0685673788278,0.0192935562497209,-5.5622262566901,8.18388687165495,-0.009257914436632,42.1547737433099,4,29
2025-05-24 16:22:49.949,301.48,25.91,0,0,256.576756776742,-78.6957807188631,35.7249400584314,24.948120539921,-0.053916699584324,2.06480848435675,0.00508767063265985,-5.63614054213936,8.16423243223258,-0.0749783809764585,42.1771778395766,4,29
2025-05-24 16:22:50.945,302.01,25.91,0,0,257.572307055551,-78.6956902483658,35.7248895268016,24.9344276929444,-0.0632930874667149,2.07218011638071,0.0031762082672897,-5.61276929444486,8.26301526999926,-0.0842154355558843,42.1504739168338,4,29
2025-05-24 16:22:51.966,302.54,25.91,0,0,258.592822523934,-78.695596482481,35.7248383367206,25.0045458803481,-0.0610949573185975,2.07365811466109,0.0050058512754537,-5.46922017093129,8.33407177476066,-0.0440717747606642,42.1806597506353,4,29
2025-05-24 16:22:52.986,303.38,25.91,0,0,259.612104147648,-78.6955022191559,35.724788290528,25.0432063336376,-0.0665594500387617,2.06431245398695,0.00875643427072327,-5.43672624885886,8.36672624885886,0.0273314562412476,42.1727895852352,4,29
2025-05-24 16:22:54.008,303.91,25.91,0,0,260.631924532143,-78.6954074046336,35.7247380565432,25.0142507168428,-0.0584503085837727,2.06386336938618,0.00596392038955767,-5.48527698128574,8.4279154719286,-0.0121501891786428,42.1681239247357,4,29
2025-05-24 16:22:55.030,304.12,25.91,0,0,261.652994472312,-78.6953121756157,35.7246878685703,25.0943782095406,-0.0712722445977663,2.074434103881,0.0307591391713175,-5.47388022110752,8.54794917084682,-0.105709613061848,42.3989172145568,4,29
2025-05-24 16:22:56.043,304.12,25.91,0,0,262.664762127448,-78.6952169135027,35.7246373959888,25.0263371034417,-0.0395753846285737,2.08856525967984,0.0351982821429868,-5.59295242548965,8.4869904383338,0.0561333956855085,42.3202132694224,4,29
2025-05-24 16:22:57.061,304.12,26.12,0,0,263.682332992609,-78.6951229029978,35.7245859057173,24.8980843677465,-0.0357521207143628,2.08490765319106,0.0308382325746345,-5.63953001022173,8.30718006133038,-0.0342299080044248,42.2506109867117,4,29
2025-05-24 16:22:58.076,304.12,26.33,0,0,264.696025578987,-78.6950304224672,35.724534372298,24.9592674275842,-0.0461164889024026,2.07889178291472,0.0285891324937409,-5.64392051157973,8.28480127894933,-0.0295166747317527,42.1961815444173,4,29
2025-05-24 16:22:59.079,304.12,26.54,0,0,265.699359676401,-78.6949390582695,35.7244829529126,25.0020980790292,-0.0411480572506017,2.07995632580232,0.0100646066949888,-5.67098079029202,8.30699359676401,0.114903951460115,42.0194351082794,4,29
2025-05-24 16:23:00.084,304.12,26.54,0.21,0,266.703209010244,-78.6948469344502,35.7244320582659,25.0529278397273,-0.019614211743838,2.07452529550301,0.0171865505665832,-5.54639028805367,8.33109627030731,0.075614918770742,41.9735802252561,4,29
2025-05-24 16:23:01.119,304.12,26.54,0.42,0,267.736796792758,-78.6947525514919,35.7243810706368,25.0754735935855,-0.0336935582113274,2.07262379664029,0.0223801887756462,-5.41632032072423,8.31052812828969,0.106311711348196,41.9382657860201,4,29
2025-05-24 16:23:02.138,304.33,26.54,0.42,0,268.754666839836,-78.6946591706507,35.7243315231916,25.0488319937659,-0.0426472281377203,2.07087455957555,0.0243887207443502,-5.37490666320327,8.33018667359345,-0.00584003117054373,41.9622426756715,4,29
2025-05-24 16:23:03.147,304.54,26.54,0.42,0,269.761903003324,-78.694566581114,35.7242827238946,25.1359997784188,-0.0519789553270045,2.07493581137283,0.0250686684012246,-5.35476193993353,8.28666678976734,-0.141428360398845,42.2972849704059,4,29
2025-05-24 16:23:04.166,304.86,26.54,0.42,0,270.780285291885,-78.6944722895249,35.7242326539066,24.9974583769529,-0.0450400356004303,2.07683304525352,0.040828205843205,-5.5294656171335,8.41825420545811,0.157719822591604,42.1139761537539,4,29
2025-05-24 16:23:05.165,305.4,26.54,0.42,0,271.777563386176,-78.6943792755797,35.72418229978,24.8193693511225,-0.0239515216945789,2.0796799821053,0.0548306830242435,-5.63442943703229,8.47555126772351,-0.00659591743792497,41.9476904641345,4,29
2025-05-24 16:23:06.179,305.93,26.54,0.42,0,272.791171470292,-78.6942848419361,35.7241302546693,24.8975110346627,-0.00866879157931961,2.08088001168284,0.0527301559193596,-5.68164685881169,8.35341256475325,-0.135382002920455,41.993414260856,4,29
2025-05-24 16:23:07.212,306.46,26.54,0.42,0,273.822671622365,-78.6941904546152,35.7240777905487,24.9905230432998,-0.00459863072770099,2.08322718187289,0.0394946429626576,-5.57482597286885,8.29531985132904,-0.0841862702107702,42.0852177743905,4,29
2025-05-24 16:23:08.225,307.3,26.54,0.42,0,274.835184585751,-78.6940974630181,35.7240273748445,25.0081759229288,-0.00124499476363021,2.08481875622554,0.0505392327197153,-5.44142600385236,8.26494446242747,-0.0115370789974267,42.0817907545277,4,29
2025-05-24 16:23:09.222,308.14,26.54,0.42,0,275.83088323437,-78.694006274184,35.7239784036332,24.9990294011876,-0.0154590358833502,2.08395133884971,0.0592288489240162,-5.49477949109333,8.27661766468741,0,42.0630441017813,4,29
2025-05-24 16:23:10.266,308.98,26.54,0.42,0,276.874638313439,-78.6939110329858,35.7239262806205,24.9733847655372,-0.0157413886173842,2.08244400760715,0.0433578020494364,-5.5799710650751,8.17504340238736,-0.017492766268774,42.0582507233731,4,29
2025-05-24 16:23:11.283,309.51,26.54,0.42,0,277.890085474867,-78.693818958256,35.723874961675,25.0073835899444,-0.0214491369266126,2.0785766998729,0.0272541218409027,-5.59890085474867,8.16890085474867,0.00670256424601087,42.0508793162011,4,29
2025-05-24 16:23:12.299,310.35,26.54,0.42,0,278.905241377519,-78.6937265325105,35.7238235042622,24.9323387587783,-0.0186594793396496,2.0795923255694,0.0250958260242891,-5.6,8.2514717239767,0.000947586224811565,42.0183165517868,4,29
2025-05-24 16:23:13.319,311.58,26.54,0.42,0,279.924641021592,-78.6936338501311,35.7237721905566,24.9887248715114,-0.0179503506165579,2.07586695955826,0.0113310540472099,-5.57226076935225,8.21376794892042,-0.0462320510795844,42.0297942563455,4,29
2025-05-24 16:23:14.318,312.42,26.54,0.42,0,280.92292622792,-78.6935419984944,35.7237223459812,24.9995375573675,-0.027572443768903,2.07486228080579,0.0118144166485832,-5.48693663948723,8.38535598330473,0.0238340982335702,42.0051580656182,4,29
2025-05-24 16:23:15.346,313.26,26.54,0.42,0,281.949561738738,-78.6934471604954,35.7236722563433,24.9905043826126,0.0914057342182798,2.07583011749142,0.0228435742540885,-5.23311394792819,8.11513147837868,0.0110087652252454,41.9792609565316,4,29
2025-05-24 16:23:16.354,314.5,26.54,0.42,0,282.956143660881,-78.6933621839325,35.7236279209077,24.9641841211562,0.131733368957113,2.07837210646332,0.0206274375978848,-4.52201512755702,7.02911909981352,0.000438563391192099,41.9368858225821,4,29
2025-05-24 16:23:17.385,315.73,26.54,0.42,0,283.986436733389,-78.6932885616356,35.7235897977719,24.9294611510648,0.141822957315158,2.07730251882573,0.0288424817817523,-3.78962991929362,5.79627591993288,-0.00986436733389271,41.8333970164609,4,29
2025-05-24 16:23:18.416,315.73,26.54,1.65,0,285.016232276408,-78.6932288792869,35.7235585088021,25.0097402835775,0.15753522631367,2.0818410242609,0.0317303945331859,-3.08815043822248,4.60857339514202,-0.0588637406514709,41.922042295692,4,29
2025-05-24 16:23:19.415,315.73,26.54,3.72,0,286.014973063273,-78.6931847597919,35.7235345484525,24.9937304848611,0.185544339493571,2.0885949305792,0.0233048107877473,-2.35622478178853,3.2893371726828,0.00910161620359982,41.8644342188349,4,29
2025-05-24 16:23:20.431,315.73,26.54,5.8,0,287.029885271002,-78.6931553905718,35.7235177549408,24.976567820149,0.212095775969872,2.08587353380035,0.0191586784529341,-1.42131013983813,1.88726406246722,-0.0497011472899806,41.892820688374,4,29
2025-05-24 16:23:21.437,315.73,26.54,7.03,0,288.035035881382,-78.6931420649641,35.7235097509498,24.9980831575616,0.201316042895419,2.08151252554582,0.0190910857615747,-0.472832418122669,0.476175600660031,-0.0371971294894154,41.8897678346292,4,29
2025-05-24 16:23:22.439,315.73,26.54,8.68,0,289.035085004642,-78.69314117017,35.7235084175425,25.079666924559,0.0945257553981823,2.08175220724753,0.0237241249402721,0.00385935051062725,-0.177894899721476,0.038947449860738,41.964631684819,4,29
2025-05-24 16:23:23.459,315.73,26.54,9.91,0,290.053252355954,-78.6931431213009,35.7235089639028,24.9863491769654,0.0507640837927024,2.08356614891775,0.020504838643149,0.111597570678619,-0.113077193725986,0.00520728796414411,41.929343103662,4,29
2025-05-24 16:23:24.450,315.73,26.54,11.56,0,291.043606689696,-78.6931435043607,35.7235101436067,24.9566075397927,0.0583269387181396,2.11167482314105,0.0436084677455531,0.136511464824357,0.0091278662060893,-0.0734589965456698,41.9588773402646,4,29
2025-05-24 16:23:25.473,315.73,26.54,13.22,0,292.066137090148,-78.6931436,35.7235111595234,24.9567962329897,0.0348294464649828,2.38567825139701,0.0753742629026393,0.0679364508177558,-0.00470903278816277,0.0600794364778052,41.7047062649562,4,29
2025-05-24 16:23:26.495,315.73,26.54,14.06,0,293.087001594976,-78.6931436174003,35.7235120957018,25.0752578947316,-0.000203706969501528,-2.54087117916973,0.0577146417700754,0.166079744803845,0.0612998405024031,-0.057379585306248,41.8485106060409,4,29
2025-05-24 16:23:27.515,315.73,26.54,14.9,0,294.106287170943,-78.6931438106287,35.7235130574851,25.0091542055981,-0.0665250125149856,-1.88451981046827,0.0144030032750343,0.0178742565811422,-0.0172455394868534,0.154491078973707,41.6161976210597,4,29
2025-05-24 16:23:28.531,315.73,26.54,16.13,0,295.121328265621,-78.6931437422733,35.7235127242657,24.9700702460466,-0.0464430590762342,-0.935621217893714,-0.0446323416043075,0,0.0960664132810574,-0.0612132826562115,41.5947918383582,4,29
2025-05-24 16:23:29.565,315.73,26.54,16.66,0,296.153880974198,-78.6931423845666,35.7235129307762,25.0496168818905,-0.00422739541260887,-0.23577712115408,-0.0938514820140463,0.0123104779358492,0.143077619483962,-0.0592283318061319,41.8336877114058,4,29
2025-05-24 16:23:30.574,315.73,26.54,16.66,0,297.162050505877,-78.693140875899,35.7235131162051,25.0720636564945,0.0820846290948964,0.679332177631289,-0.0703624072136896,0.0475898988245118,0.147035959529805,0.027548585999165,41.7237825555647,4,29
2025-05-24 16:23:31.583,315.73,26.54,16.98,0,298.169813828458,-78.6931392169814,35.7235130132048,24.9799619682419,0.131748932913743,1.35378379374872,-0.0147848221747848,-0.114905585146249,0.0562260640158296,0.110565160039574,41.7168676862965,4,29
2025-05-24 16:23:32.597,316.26,26.54,16.98,0,299.18250770656,-78.6931395920123,35.7235118079877,24.8909428776214,0.086453051574924,2.17524002072994,0.0821279517200253,-0.099125385327988,-0.109277080771135,-0.147148612819243,41.6540606781773,4,29
2025-05-24 16:23:33.599,317.49,26.54,16.98,0,300.183451097211,-78.6931416154593,35.7235101881331,24.9473271476517,0.100925151160573,2.17204640375892,0.0881810498453788,-0.14917255486053,-0.333669021944212,-0.0110070658326358,41.7614060617616,4,29
2025-05-24 16:23:34.605,318.72,26.54,16.98,0,301.187764367787,-78.6931454383988,35.7235084056948,25.013803775863,0.0722958301784637,2.15069883910975,0.0720888361984621,-0.188122356322126,-0.336856494254881,-0.0524894252885035,41.9229430517235,4,29
2025-05-24 16:23:35.642,318.72,26.54,18.63,0,302.222698827365,-78.6931485563181,35.7235063436819,24.9629485266446,0.0717941295456489,2.14516194562752,0.0370596544522631,-0.151049152442549,-0.224325293158747,-0.0133190351790497,41.8827664013672,4,29
2025-05-24 16:23:36.647,318.72,26.54,19.47,0,303.226286828098,-78.6931496642279,35.7235050547426,24.8864674653272,0.0831970387619245,2.14934872972294,0.030001780648569,-0.0205827123472523,-0.000582712347252289,-0.0103658145288253,41.6832262868281,4,29
2025-05-24 16:23:37.694,318.72,26.54,20.31,0,304.272320866641,-78.6931487370545,35.7235051450888,24.9479463543966,0.0866021811780517,2.00734774403939,0.0243710181155873,0.112678503996947,0.0891071653343511,-0.0908928346656488,41.7387364941949,4,29
2025-05-24 16:23:38.693,319.56,26.54,20.31,0,305.27071848057,-78.693146958563,35.7235060707185,25.0467071848057,0.0914469023350323,1.30957835980002,-0.0138470572691988,0.145856303886041,0.116850880919657,-0.0712706734974372,41.9142375959015,4,29
2025-05-24 16:23:39.729,320.4,26.54,20.31,0,306.306254428509,-78.6931444893604,35.7235070143781,25.0080618357237,0.0271551218802266,0.145163648101838,-0.0712550335512191,0.0398130757061381,0.266937455714912,0.102875619991226,41.8851984411649,4,29
2025-05-24 16:23:40.716,320.4,26.54,20.52,0,307.29215257483,-78.6931418202016,35.723508405673,24.9294172740102,-0.136975587340932,-0.617589116442257,-0.0907117898775565,0.381251214353957,0.00874878564604289,0.159098639523774,41.6258080661088,4,29
