time,snr_lw1,snr_lw2,snr_lw3,snr_lw4,num,Longitude,Latitude,Altitude,Pitch,Yaw,Roll,VelocityX,VelocityY,VelocityZ,BatteryVolts,GPSFix,NumberOfSatellites
2025-05-24 16:19:31.186,9.060516,1.493488,-7.915813,-52.370552,58.0105062530327,-78.6962912978987,35.7274890989494,24.3002636327694,0.0556013913269968,0.580541883040089,-0.0865901440207225,-0.0298949374696732,0.0494746873483659,-1.10106968492222,43.4989006553554,4,29
2025-05-24 16:19:32.181,13.290615,-7.101477,-23.329641,-53.208546,59.0040965233965,-78.6962910934456,35.7274889983614,24.7961106061317,0.047308411843258,0.584980802015372,-0.0964500438201423,-0.0200819304679303,0.000614478509476933,-0.259016834384837,43.2067296294558,4,29
2025-05-24 16:19:33.203,13.271019,0.62628,-9.707815,-49.873573,60.0245487537531,-78.6962894729964,35.7274885852707,24.8251602903303,0.0489582497093793,0.581090592932948,-0.112734841281838,-0.0395090249249381,0.147790612162222,-0.0219639003002475,43.1428411565315,4,29
2025-05-24 16:19:34.195,8.223289,1.334236,-9.947363,-51.649094,61.0147001725733,-78.69628839706,35.72748799706,24.9119702113898,0.0515653362075251,0.580171581323707,-0.129971475852484,-0.0194119930970671,0.0591179896456007,-0.100294003451466,43.2177346203637,4,29
2025-05-24 16:19:35.188,19.552719,2.599854,-10.614904,-53.348984,62.0057524219935,-78.6962882051772,35.7274878034515,24.9770920387519,0.0465293809359507,0.587173637020389,-0.132702401566763,0.0204601937594811,-0.000862863299027094,-0.120287621099676,43.3334592723326,4,29
2025-05-24 16:19:36.198,15.525555,2.995377,-11.188412,-52.818985,63.015298152048,-78.6962891351858,35.7274884137683,24.9935507334737,0.074599377156039,0.855459700459698,-0.104210103545216,0.100611926081919,-0.150611926081919,-0.164951609824166,43.2396175461988,4,29
2025-05-24 16:19:37.181,17.079788,-1.067293,-11.584089,-50.604019,63.9979180680311,-78.6962913952116,35.7274892981263,25.0289250504491,-0.00424443841966187,1.29024200842095,-0.0350310152612127,0.139916722721245,-0.189916722721245,0.159312962450268,43.2150520482992,4,29
2025-05-24 16:19:38.180,15.029255,1.620787,-14.929516,-50.563515,64.9962402332035,-78.6962822345898,35.7274922887207,24.8078346682288,-0.215741401014285,1.27922688518541,-0.035238832160341,0.618195311937685,2.09139013403604,0.0902631836757543,43.0685526857191,4,29
2025-05-24 16:19:39.199,15.806927,0.019382,-11.858149,-51.922195,66.0140907397289,-78.6962458420067,35.7275006578163,24.9320990776989,0.00872375024230115,1.24997093348149,-0.0818003103192582,1.18042272219187,3.88802287123046,-0.196195500273204,43.1608018446023,4,29
2025-05-24 16:19:40.202,14.25045,-1.711422,-14.542482,-51.105885,67.0162057618266,-78.6962063575827,35.7275118539547,25.0094861728548,0.136418846925838,1.23714290896308,-0.0727549639226848,1.20400386812415,3.02909456724365,0.0690276542904022,43.0070162057618,4,29
2025-05-24 16:19:41.306,23.741417,-4.092113,-13.23881,-52.945045,68.1191501473012,-78.6961779629631,35.7275217123456,25.0441234563339,0.17881403923929,1.2284829882125,-0.0499881429000465,0.772084416038339,1.61106231587355,0.0123830029460232,43.014314957807,4,29
2025-05-24 16:19:42.189,26.084171,-9.473242,-15.352003,-53.149323,69.0008137281429,-78.6961665973961,35.7275255004882,25.0820024411844,0.15267707230809,1.22861903872108,-0.0513250686607937,0.269820979808559,0.509625685054259,0.0300244118442874,43.0610081372814,4,29
2025-05-24 16:19:43.192,28.542255,-6.752083,-15.890597,-50.681065,70.0017975128251,-78.6961634,35.7275261001798,25.0850143801026,0.0794771701791577,1.23528075257023,-0.058073161164276,0.0499820248717487,0.0498382238457387,0.0601258258977588,43.0708723765894,4,29
2025-05-24 16:19:44.182,26.714939,-10.739059,-13.630814,-51.460526,70.9906401580933,-78.6961634,35.727526199064,25.0929251212647,0.0546727428035297,1.23633023134798,-0.0580721334047462,0.040093598419067,-0.0391576142283972,0.129344811066531,43.0006645487754,4,29
2025-05-24 16:19:45.184,24.710258,-8.314949,-15.538702,-53.951828,71.9915954210983,-78.6961638957977,35.7275265966382,25.0781260686835,0.0521383364473017,1.23957443741759,-0.0430787838395958,0.0300840457890173,-0.0300840457890173,-0.00882335895375832,43.151714099428,4,29
2025-05-24 16:19:46.195,26.061291,-6.253107,-16.360413,-54.910286,73.0010956022964,-78.6961644003287,35.727526601753,24.9411402370939,0.0794854196702335,2.05237613501572,-0.018848524428737,0.0302958126200203,-0.099769923517762,0.0498794837473992,42.8942859521994,4,29
2025-05-24 16:19:47.208,28.052612,-5.22378,-13.940929,-51.208111,74.0145678972886,-78.6961646970864,35.727528227679,25.0686212346705,0.0429681018647071,2.76105317276826,0.0679489382345048,0.297960494379599,0.108397531298257,-0.0546098780032272,43.1489688905225,4,29
2025-05-24 16:19:48.188,22.589817,-7.790054,-9.412733,-56.934513,74.9934876455042,-78.6961645013025,35.7275300876265,25.0431693212169,-0.0283191994674563,-2.5308459179629,0.0481500095289898,0.160911729629416,0.000716358994540859,0.307590428836544,42.7436961147613,4,29
2025-05-24 16:19:49.199,21.627331,-6.607565,-11.637732,-52.416977,76.0030384207404,-78.6961642951385,35.7275306963539,25.0992825731289,-0.0580444636528597,-1.866196630975,0.00277287506112389,0.0493011632297151,0.209726542133367,-0.0889973211556782,43.0838936552741,4,29
2025-05-24 16:19:50.211,17.860245,-22.980907,-12.784071,-56.593979,77.014065920883,-78.6961626985934,35.7275294676484,25.1896509912125,-0.0804122308369081,-0.990860531191778,-0.0434947683187185,-0.17985934079117,0.117749452658728,0.240421977626489,43.0453569264913,4,29
2025-05-24 16:19:51.203,18.262562,-9.643469,-7.574123,-54.414864,78.0051078308752,-78.6961626091941,35.7275271979569,25.025122587941,-0.0671345853972195,-0.285509602216237,-0.0771878328401321,-0.169080590442473,-0.0409194095575273,0.268212259193697,42.7907866059548,4,29
2025-05-24 16:19:52.649,23.266342,-6.219969,-15.191447,-50.942356,79.4500663556744,-78.6961652551261,35.7275268450066,25.0363981420411,0.0294652422794559,0.897438221742012,-0.0576555911305003,0.0370039813404647,-0.188495355102791,-0.0574966822162794,43.0056590907274,4,29
2025-05-24 16:19:53.248,21.742321,-0.254654,-20.089779,-53.543404,80.0491713809652,-78.6961663983428,35.7275269049171,25.0188856306185,0.0427424580465201,1.29037347526173,-0.0433402262994547,0.059674009997304,-0.152458569048261,-0.0290165723806956,43.0796723727139,4,29
2025-05-24 16:19:54.231,26.673313,-1.223619,-22.745609,-52.232265,81.0296451072844,-78.6961683681837,35.7275269436743,24.9743832969113,0.0270029777220188,1.27173160724752,-0.012099052001518,-0.144446766092667,-0.201778706437067,-0.0123716085827558,43.0521620033484,4,29
2025-05-24 16:19:55.243,24.966671,-0.483463,-46.419357,-53.428753,82.0399801576409,-78.6961706799603,35.7275250080456,24.8609575395475,0.0203854247474967,1.27137714461284,-0.0255165481185286,-0.283603174777448,-0.254402777930267,-0.0951974204933238,43.0003958331046,4,29
2025-05-24 16:19:56.251,23.473511,-0.213928,-25.864223,-52.088722,83.045522897745,-78.6961726045523,35.7275227954477,24.9822306219895,-0.00375481328773266,1.27023134654023,-0.0467023510952531,-0.119074504541206,-0.111805878405905,-0.207253588631407,43.1952626111337,4,29
2025-05-24 16:19:57.255,22.999767,-0.563229,-23.392052,-52.152802,84.0479585353085,-78.6961725896954,35.7275227143876,25.0243480220751,-0.00186981417202178,1.26175376832345,-0.0130255418427197,0.106163317175318,0.0681529510024498,0.0585612439407442,43.0531367463645,4,29
2025-05-24 16:19:58.277,21.73465,-2.080664,-23.292538,-51.704277,85.0695636459486,-78.6961701982654,35.7275229930436,24.9349216731298,0.0241553286382514,1.21597198393062,-0.0437814279724542,0.0230436354051436,0.223739271864629,0.0313912729189713,43.0216698889346,4,29
2025-05-24 16:19:59.286,21.150433,-1.678547,-25.017981,-51.155815,86.0766302022734,-78.6961673084245,35.727522892337,24.9734635885841,0.0235577472266425,0.446635551797459,-0.0557578221835281,-0.0638695838181258,0.146896718204608,0.0477010939317972,42.8305364114159,4,29
2025-05-24 16:20:00.318,18.042023,-6.543295,-18.305283,-53.046925,87.1082492613623,-78.6961649350504,35.7275230706232,24.960721542841,-0.0588503272302463,-0.580016022283969,-0.0260823335903141,0.132321665339426,0.149895546591881,0.0178350147727535,42.8249843319888,4,29
2025-05-24 16:20:01.310,18.076229,-2.31418,-14.476086,-50.169247,88.099953112144,-78.6961657793529,35.7275274789778,24.9219939045787,-0.350655948109208,-0.592184842493848,-0.0349174914816215,1.39388090484563,-0.649934357001527,-0.00599718672863686,42.742692169728,4,29
2025-05-24 16:20:02.351,25.993877,-19.067694,-12.671839,-53.699257,89.1398803723747,-78.6961821865906,35.7275532267603,25.0536874390993,-0.380003565202,-0.568095852945488,-0.0459340353297803,3.98913562294814,-2.10163611015337,-0.0390179441437916,42.8797113646244,4,29
2025-05-24 16:20:03.382,21.967056,-15.37398,-13.681725,-50.817566,90.1705086753585,-78.6962140659748,35.7276015056396,25.1300182886206,-0.385212269192429,-0.566433278187091,-0.0736524640410819,6.21567156993475,-3.49995619121247,0.120691561564531,42.7507690969257,4,29
2025-05-24 16:20:04.383,18.495216,-12.882725,-13.976994,-51.276611,91.1707503491878,-78.6962593937194,35.7276661111766,25.0611462482541,-0.370960362783897,-0.571580894600428,-0.0845506203459913,7.96733534220408,-4.6724502095127,0.247802454605582,42.5288545160626,4,29
2025-05-24 16:20:05.398,14.901546,-18.423691,-9.697926,-53.418213,92.1848948888642,-78.6963160020297,35.7277439806542,25.0656900597766,-0.194945421493618,-0.581686700485551,-0.0826215479994453,8.77815105111136,-5.15890630666815,0.119661562224933,42.6082315602167,4,29
2025-05-24 16:20:06.429,16.901657,-11.452818,-19.841614,-51.01424,93.2144965788561,-78.6963746550029,35.7278254521828,25.0900577223743,-0.166384178876466,-0.590470431449615,-0.106907985262601,8.74640537632582,-5.15289931577123,0.0128402736915079,42.8146671065685,4,29
2025-05-24 16:20:07.455,14.581928,-10.994162,-13.490589,-52.660892,94.2396416897472,-78.6964338231822,35.7279054201593,25.0193493814407,-0.153712466871854,-0.587111999040581,-0.0872939044328603,8.65760358310253,-5.28603583102528,-0.0332250817176933,42.8836718896125,4,29
2025-05-24 16:20:08.461,14.303322,-8.248665,-13.795176,-50.57354,95.2438894999805,-78.6964920724241,35.7279834746031,24.9679750274991,-0.143447881595197,-0.591363206754316,-0.0878207865695781,8.63780552500097,-5.17585547000273,-0.011705634997468,42.8591684414966,4,29
2025-05-24 16:20:09.467,15.622124,-7.189962,-14.98859,-50.573296,96.2489107537584,-78.6965492905272,35.7280614163459,25.0136988054266,-0.147988933696424,-0.594805779080313,-0.0866356814817645,8.58008713969933,-5.00030498894765,-0.0577287417107362,42.9449602245246,4,29
2025-05-24 16:20:10.485,12.431538,-6.416815,-54.874695,-54.093914,97.2660082813003,-78.6966045048422,35.728139529436,25.0599063395333,-0.174727470034812,-0.593798157968827,-0.105493653224438,8.53596049687802,-4.82990124219504,0.0627588406179584,42.8462854409462,4,29
2025-05-24 16:20:11.540,6.107811,-5.62323,-24.099701,-50.838936,98.3206645302817,-78.6966615930808,35.7282205270359,25.0588955405627,-0.180246494488208,-0.591020407206339,-0.100217093026109,8.5607601281831,-5.00733955135915,-0.0111401922746509,42.9300689593514,4,29
2025-05-24 16:20:12.527,9.422737,-6.479322,-20.051949,-52.34293,99.3069188623221,-78.6967169636833,35.7282962713686,24.973971030536,-0.17798957221723,-0.582680773747957,-0.0786801116961474,8.54762269760899,-5.15613837724644,-0.0236605269573066,42.9140366344429,4,29
2025-05-24 16:20:13.528,7.209076,-6.957764,-27.099691,-51.353752,100.307006027302,-78.6967734388345,35.7283733236677,24.9352980843822,-0.179885715687786,-0.582068054502152,-0.0719973474296927,8.65298084382229,-5.09938861372052,-0.100968252082399,42.9651975890792,4,29
2025-05-24 16:20:14.554,7.996956,-10.889837,-25.55324,-51.46331,101.331325120523,-78.6968299903516,35.7284530096244,24.9542771033746,-0.194070494347498,-0.585007764986904,-0.0877334938489174,8.72680724156341,-4.95987950723137,0.0701807391529509,42.7078795072314,4,29
2025-05-24 16:20:15.555,7.320404,-12.432301,-65.675858,-50.902225,102.332098635939,-78.6968848982644,35.7285312036936,24.9713395068203,-0.198783104347073,-0.586305786977361,-0.0966969552949768,8.69660493179695,-5.02324690451574,-0.0298518363126896,42.7755641867829,4,29
2025-05-24 16:20:16.572,2.779465,-17.744829,-59.22081,-50.881447,103.347290928213,-78.6969415913956,35.728610597067,24.9711256183539,-0.179091043822261,-0.586797866663693,-0.0960930292771565,8.71958127215363,-5.11514782066763,-0.0961083628714992,42.8532266194056,4,29
2025-05-24 16:20:17.593,5.806808,-18.961277,-56.567902,-50.568771,104.367222103987,-78.6969993847711,35.7286903229909,25.0096827672549,-0.172313447711642,-0.583644692661861,-0.0909542249017249,8.67062223168101,-5.16327778960126,-0.0369500106411354,42.9016099978718,4,29
2025-05-24 16:20:18.625,1.659887,-16.645092,-20.442715,-51.120335,105.39891588195,-78.6970576988557,35.7287705351136,25.0408682994372,-0.180195575667916,-0.581631234070143,-0.084116589101513,8.66786990583398,-5.08803252354151,0.10377233520946,42.8344135712559,4,29
2025-05-24 16:20:19.626,5.978565,-11.097748,-21.096989,-51.311813,106.398366160988,-78.6971136296487,35.7288487522338,24.9663503131891,-0.173883806488917,-0.587324359584602,-0.0887441404037305,8.69219606068145,-5.00227775263206,0.174228737461696,42.6526597804029,4,29
2025-05-24 16:20:20.654,4.644302,-10.095779,-50.698368,-52.837017,107.425258956192,-78.6971699490354,35.7289289276727,24.9424691627582,-0.178558947907309,-0.591961855009256,-0.0969446412864625,8.60298964175232,-4.91275776868576,0.0814948208761599,42.5629536253867,4,29
2025-05-24 16:20:21.647,1.416225,-7.281654,-20.677475,-51.104767,108.416968939754,-78.6972242000793,35.7290056398208,24.9979260371324,-0.193624413919793,-0.589483013210984,-0.1006291304096,8.53830310602464,-4.98420596216797,0.0491515530123192,42.5864278507709,4,29
2025-05-24 16:20:22.666,1.399551,-6.008137,-19.873894,-53.461037,109.435162667828,-78.6972812607558,35.7290837640092,25.028619717367,-0.19781616594608,-0.585553303334408,-0.0806702113674158,8.51916464010455,-5.10351626678283,-0.014813013426266,42.6945973708978,4,29
2025-05-24 16:20:23.684,2.435692,-4.611134,-16.565708,-63.121273,110.452848857489,-78.6973393029546,35.7291622505016,25.0010736608236,-0.189506052143109,-0.585459588266067,-0.0642948562047055,8.62887035147352,-5.16905697714977,-0.0781139542995464,42.80518860457,4,29
2025-05-24 16:20:24.690,2.057114,-8.974735,-15.264521,-55.609375,111.457671453393,-78.6973967788071,35.7292403441405,24.9525767145339,-0.173552527979284,-0.583575887128861,-0.0543428025386951,8.7,-5.15253971279642,-0.0908465709321392,42.8002539712796,4,29
2025-05-24 16:20:25.701,3.163822,-4.28297,-17.024818,-53.087307,112.467171081294,-78.6974536812779,35.7293190926272,24.9855630937963,-0.174420413647574,-0.583182134211801,-0.0497913463928282,8.6766414459353,-5.02656578374122,-0.0332828918706115,42.7685025640411,4,29
2025-05-24 16:20:26.707,4.348442,-4.366081,-26.929045,-50.894409,113.472429403707,-78.697508522216,35.7293972605217,25.0259761586704,-0.187895702768437,-0.583016114769606,-0.0622638644781412,8.65,-4.83968700136981,0.0247242940370699,42.7615111878002,4,29
2025-05-24 16:20:27.721,1.048935,-4.941069,-87.20137,-51.632317,114.485114398603,-78.6975627051089,35.7294759904117,24.9913694753285,-0.189992514146685,-0.583057835825465,-0.0762846703727292,8.66940457594414,-4.85672516769273,-0.0136602958742998,42.7686549664615,4,29
2025-05-24 16:20:28.730,-1.347317,-7.8883,-23.738205,-52.939766,115.49306039692,-78.6976177127702,35.729554558711,24.9730905634183,-0.185675296826692,-0.584626216309104,-0.0713338650389729,8.66534698015401,-5.04395905953796,-0.0846530198459862,42.7415624564277,4,29
2025-05-24 16:20:29.748,1.055124,-4.39592,-22.606842,-53.195137,116.509355586222,-78.6976748804617,35.7296336769291,24.9923035326893,-0.178895777691292,-0.584476615911405,-0.0579960891031154,8.66037422344887,-5.10981288827556,-0.0590644413778215,42.7446403337933,4,29
2025-05-24 16:20:30.758,-1.705223,-4.201065,-32.796791,-56.059261,117.518455137139,-78.697731163187,35.7297123431917,24.997035198977,-0.184352984062362,-0.586615763826857,-0.0703426681543021,8.67481544862861,-4.98075531845813,0.0314764109710838,42.6389767801038,4,29
2025-05-24 16:20:31.788,-2.441929,-2.254055,-22.04788,-52.476639,118.548177088536,-78.6977869822919,35.7297927029952,25.0203190105051,-0.201238530377229,-0.584314103824303,-0.0830873644522544,8.63710937468782,-4.76584635317811,0.157708334165804,42.4101119779908,4,29
2025-05-24 16:20:32.823,-2.988041,-0.711353,-28.981672,-53.247177,119.581734406024,-78.6978417410563,35.7298733334571,25.1873952272507,-0.211327534867538,-0.583905620969811,-0.109968186146825,8.5576439034578,-4.82543360150611,-0.020145794590511,42.6989255208484,4,29
2025-05-24 16:20:33.824,-0.593843,-10.472973,-27.818335,-64.488297,120.582288470144,-78.6978971233582,35.7299504868391,25.3107343270522,-0.16130006858136,-0.5830237164765,-0.103487410423958,8.49670846119422,-5.19785269626646,0.0445611574606845,42.9404043840302,4,29
2025-05-24 16:20:34.839,-2.865654,-3.531635,-25.818701,-64.95472,121.596516703911,-78.6979551014521,35.7300263632811,25.1541509398323,-0.0409290626738665,-0.588291004177644,-0.0796259055142153,8.03857763910598,-5.01419447653617,0.0887663251396149,42.9961088552514,4,29
2025-05-24 16:20:35.856,-0.123886,-12.138168,-22.872723,-53.880054,122.612286666227,-78.6980072448453,35.7300958374046,24.9123583667612,0.0636345539091216,-0.604446777244674,-0.0709591724066989,7.035870333839,-4.17220480042212,0.0612286666226955,42.8509454001451,4,29
2025-05-24 16:20:36.873,-3.061859,-15.13795,-26.017982,-21.783756,123.628318946406,-78.6980485708096,35.7301539239128,24.8817787914981,0.0788526085654289,-0.615114622344874,-0.087187782711923,5.65380476985576,-3.25336251662719,-0.088495683921658,42.9806107680263,4,29
2025-05-24 16:20:37.890,-4.260473,-9.812946,-21.361767,-19.649111,124.645115981018,-78.6980799697127,35.7301991401276,24.802685167246,0.0824715408199189,-0.619763410381304,-0.096587896300121,4.20328878638559,-2.4010048955656,-0.154841881328771,43.0801004895566,4,29
2025-05-24 16:20:38.896,2.506737,-10.022232,-26.074177,-28.054079,125.650358941776,-78.6981028071788,35.7302310547991,24.823294867722,0.100226590070367,-0.623345077717341,-0.0952173746347857,2.78649030267793,-1.70677745609881,-0.208043073013133,43.1257912783042,4,29
2025-05-24 16:20:39.903,2.872635,-20.667446,-22.87121,-22.340519,126.654913731426,-78.698118051913,35.7302497687922,24.8381837958172,0.131479838419864,-0.622030939529374,-0.06410180180154,1.28798199091762,-0.920225053659041,-0.0731732925148746,43.0225738928176,4,29
2025-05-24 16:20:40.929,3.80191,-12.842293,-23.187193,-22.748451,127.679750679909,-78.6981234876011,35.7302552117756,24.665297842261,0.0421436377632675,-0.604309761052674,-0.0452832533667991,0.00547674530054251,-0.0490094288760862,-0.0683675883882248,42.7634673164245,4,29
2025-05-24 16:20:41.934,2.865974,-14.500824,-25.513559,-22.903152,128.682445999635,-78.6981225668634,35.7302533844174,24.7738955279021,-0.057441759351002,-0.598148872949355,-0.0471393004895608,-0.302228780025581,0.151755400036544,-0.212366899945184,42.7131696379806,4,29
2025-05-24 16:20:42.985,-5.638103,-7.484016,-58.891529,-30.371134,129.732939453467,-78.6981218267061,35.7302514471787,24.9748044336477,-0.0712252781639736,-0.600397840045169,-0.0363860484167967,-0.0381299803559931,0.0393766601186644,-0.0694357420986612,42.6933530273267,4,29
2025-05-24 16:20:43.966,-15.802872,-4.065626,-26.216602,-37.508163,130.713583312838,-78.6981220854333,35.730251314075,25.0077234169331,-0.0624975475076038,-0.190730596966477,-0.0463064700915649,0.0856791656419144,-0.0114074993851486,-0.0356791656419144,42.6614468338662,4,29
2025-05-24 16:20:44.998,-8.398647,-2.137451,-60.237663,-58.538006,131.745263526178,-78.6981213056838,35.7302528160007,24.945124181432,-0.0368154642085729,0.739383787157689,-0.0261183792355579,0.278863246282645,0.300463316256406,-0.117073717355992,42.662197898788,4,29
2025-05-24 16:20:46.015,-6.075977,-0.772579,-62.258556,-19.00486,132.761715622729,-78.6981170390788,35.7302558898331,24.9912692591775,0.0541425647217662,1.45710311174371,0.0104767227622657,0.240976969045189,0.554725968318569,-0.0638284377270687,42.8653312087778,4,29
2025-05-24 16:20:47.032,-3.50429,-4.525398,-68.224678,-42.248398,133.778116955828,-78.6981131544023,35.7302584118573,24.9217384331239,0.0359399633934245,2.3581540250692,0.0636712907868516,0.225562339116563,0.140910996061387,-0.0789058477914079,42.5506132764233,4,29
2025-05-24 16:20:48.051,-14.019242,-10.414827,-78.525284,-14.555698,134.795539812622,-78.6981134342018,35.730259059108,25.1545504391021,-0.0318551753647804,-1.9343065925931,0.0988638126697841,-0.104126721301169,-0.276394332543859,-0.0104460187378169,42.9346436042003,4,29
2025-05-24 16:20:49.057,-6.401415,-14.581407,-30.587753,-13.902546,135.800557147039,-78.6981167421172,35.7302570986071,25.1105231137086,-0.0119372717156421,-2.32464955473403,0.0472905853932813,-0.222022285881578,-0.317977714118422,0.258172715582229,42.5190228114543,4,29
2025-05-24 16:20:50.082,-15.165779,-12.807333,-26.39789,-18.329987,136.824317277782,-78.6981193959297,35.7302549513654,24.9395687936659,-0.037836213202947,-1.62745764568553,-0.00360176612902951,-0.172297790555268,-0.112163853332347,-0.0014837383349362,42.5266068890563,4,29
2025-05-24 16:20:51.087,-11.919592,-14.249945,-26.431637,-23.526176,137.828619653452,-78.6981192199662,35.7302525284509,24.9578885595537,-0.0580955336451348,-0.719075836481048,-0.0409922509101588,-0.234575768810665,0.128868716828441,0.0294343584142206,42.2545538264901,4,29
2025-05-24 16:20:52.108,-2.60573,-6.108042,-25.078411,-59.543961,138.848361732238,-78.6981180819659,35.7302510819659,25.0401107472403,-0.0655961297627874,-0.561474111349524,-0.0673802690660489,-0.029425949618035,0.0342621228418677,-0.077254259835749,42.5500086510046,4,29
2025-05-24 16:20:53.120,-1.461273,-3.901615,-28.262928,-64.103432,139.858398023114,-78.6981188442378,35.7302515867184,25.1826181014902,-0.0073854439389215,-0.577302422639961,-0.0692559734882866,0.018583980231136,-0.101591743004768,-0.082832039537728,42.9230232883209,4,29
2025-05-24 16:20:54.126,0.755543,-5.73806,-37.008904,-20.72628,140.862922552819,-78.6981205532606,35.7302512685387,24.9666962979747,-0.0263077356416408,-0.580849583391131,-0.0583543032267355,-0.161213736092077,-0.0595954213026411,0.17024754031763,42.6478152750343,4,29
2025-05-24 16:20:55.151,-2.319128,-5.578491,-24.625195,-57.519115,141.886137052057,-78.6981201797041,35.7302504910904,24.8253219649093,-0.0579901477294256,-0.575992252308741,-0.0802154105346407,-0.00391121906804266,0.153811521973096,-0.0647024861376513,42.5401733657204,4,29
2025-05-24 16:20:56.177,0.55398,-5.610931,-27.600916,-22.766411,142.910968431782,-78.6981180047726,35.7302508554842,25.0206117708781,-0.0641185787287087,-0.576593112045492,-0.102654722190806,0.101987158860386,0.207329052953462,-0.0726709470465379,42.6013226323837,4,29
2025-05-24 16:20:57.188,-2.669405,-6.319094,-67.883286,-28.460239,143.920730027548,-78.6981161426859,35.730252189022,25.0474451101928,-0.0886972416802912,-1.06443880126085,-0.0982652253160874,0.15603650137741,0.0626831955922868,0.104938705234159,42.4726526859504,4,29
2025-05-24 16:20:58.206,-10.19552,-8.609005,-24.820835,-25.536654,144.936192278592,-78.6981156255231,35.7302523936192,24.935656926569,-0.0895758696559008,-2.10257754409143,0.0221219581357291,-0.045962301290228,0.0593619227859195,0.00765692656896656,42.486277191522,4,29
2025-05-24 16:20:59.236,-0.587206,-17.246393,-80.126862,-17.555344,145.966022925953,-78.6981155033977,35.7302499849427,25.0139760404098,-0.339436288366548,-2.53451131312669,0.0805356606879343,-0.823158111502867,-0.287768253343079,0.135243209633419,42.0735761647662,4,29
2025-05-24 16:21:00.241,-3.488512,-14.241757,-26.000544,-19.879517,146.970660330015,-78.6981279244522,35.7302331075763,25.0373838669303,-0.32562494521463,-2.51100918438591,0.0722228300581803,-2.79132066003012,-1.8918829412247,0.00410755379789153,42.3123423461339,4,29
2025-05-24 16:21:01.222,-4.935019,-17.725428,-22.562706,-18.721523,147.950668994879,-78.6981554891332,35.7302006575218,25.1150041885852,-0.372717285255173,-2.50966222606579,0.0422303432837686,-4.75133798975879,-3.08080279385528,-0.0190133798975879,42.3599280977849,4,29
2025-05-24 16:21:02.268,-5.456673,-9.138166,-24.748535,-13.102875,148.996309764041,-78.6981987450101,35.7301470922613,25.1140184511798,-0.406843715763536,-2.50486595875776,0.0243234649228378,-6.82269333280055,-4.4551288885337,0.209151245729357,42.1258745859224,4,28.0036902359593
2025-05-24 16:21:03.277,-8.381178,-10.624184,-59.923508,-41.963375,150.003305519127,-78.6982530804814,35.7300781520861,25.1333503850275,-0.30267419515126,-2.51531172155268,0.000884781883171989,-8.01237997377175,-4.9298677792349,0.19046277267784,41.9425817713664,4,28.9966944808726
2025-05-24 16:21:04.308,-6.120934,-15.32366,-22.881104,-21.220938,151.033799367323,-78.6983093217859,35.7300006554914,25.2303811613326,-0.285270005062712,-2.51498269244978,0.00986022561186989,-8.74250576590957,-4.88898601898031,0.31850821511013,42.1287481988088,4,28.0337993673231
2025-05-24 16:21:05.312,-1.741989,-17.631428,-22.469843,-20.404953,152.036658311012,-78.6983633465563,35.7299192086818,24.9848431411533,-0.247793170533303,-2.50763391386269,0.053482477138447,-9.09743391822915,-4.86109974933037,-0.0118329155506091,42.4318576108556,4,29
2025-05-24 16:21:06.328,-0.007893,-11.898628,-15.629176,-16.451334,153.051911801288,-78.6984173395755,35.7298364055265,25.0049754397498,-0.257885209380206,-2.50848481444246,0.0952297002444657,-9.02480881987118,-4.90505442237356,-0.0496176397423693,42.3078936658251,4,29
2025-05-24 16:21:07.348,1.533766,-17.031403,-18.62479,-16.121815,154.071470528297,-78.6984734096141,35.7297541538283,24.9819367530179,-0.24556556821136,-2.50801395157249,0.0975087530683484,-8.91642059962359,-5.20287056905501,0.128564715472495,42.0467229288292,4,29
2025-05-24 16:21:08.348,4.064667,-13.724855,-23.877266,-14.813487,155.070684130541,-78.6985323481163,35.7296753078431,25.1541644836823,-0.239440936992104,-2.50299584119535,0.0778501518668957,-8.72939738041878,-5.49363842825127,-0.0108110630296141,42.2413221541355,4,29
2025-05-24 16:21:09.377,-1.226913,-15.973004,-33.368496,-15.04462,156.097856210874,-78.6985939637308,35.7295955748574,25.0346728888303,-0.22222035760835,-2.49516935886012,0.0566149431916909,-8.58608575156503,-5.39923581680384,0.0865145093901927,42.3023205493247,4,29
2025-05-24 16:21:10.393,1.528255,-11.275087,-23.908752,-15.93131,157.113441470814,-78.6986538043909,35.7295173969419,25.0201086888555,-0.222980834475513,-2.49660030161489,0.0381295832610166,-8.57268829416271,-5.29659675587559,-0.115252608794236,42.4703946688402,4,29
2025-05-24 16:21:11.409,3.985958,-16.781612,-18.889458,-18.750175,158.128742897912,-78.6987133323565,35.7294386352997,25.1140717613179,-0.21012324683328,-2.49963215339272,0.0303366863385257,-8.73197599429235,-5.20949083798146,0.0308982954988299,42.4861764985081,4,29
2025-05-24 16:21:12.405,3.5914,-13.518015,-15.877098,-17.861938,159.123906332475,-78.6987683652858,35.7293615105248,24.9084081319279,-0.218196990031611,-2.50093838461099,0.0643390092675366,-8.61867344327325,-4.804956253299,0.204067163582272,42.1859240870775,4,29
2025-05-24 16:21:13.453,0.706099,-15.299339,-15.449999,-14.24955,160.171360756331,-78.6988252992562,35.7292794967724,24.9710329115948,-0.221932032067291,-2.49884972214706,0.0790036237925195,-8.66115031680358,-4.88284018908277,-0.0482863924366892,42.4224954118447,4,29
2025-05-24 16:21:14.456,-1.715038,-19.372274,-15.795646,-20.362244,161.173333026842,-78.6988792839824,35.7292008706902,24.9254533201542,-0.206856047272572,-2.47728754961542,0.0841700484744634,-8.55440002758425,-5.11946661456308,-0.0140000459737488,42.2665600662022,4,29
2025-05-24 16:21:15.476,-18.792784,-15.014469,-13.664921,-20.61507,162.192842248785,-78.6989382969769,35.7291225668522,24.9496223073217,-0.201120527153067,-2.47771170555955,0.031171874102387,-8.46650104258505,-5.31592425214765,0.0675747052673033,42.1016917996637,4,29
2025-05-24 16:21:16.481,-0.734653,-17.983719,-15.614811,-21.039209,163.197907645097,-78.6989982306925,35.7290459777636,24.9419773443096,-0.172061296386361,-2.47682124111168,0.00157367666207581,-8.42583261160775,-5.54010461774516,-0.121874458705809,42.2221325387859,4,29
2025-05-24 16:21:17.502,-2.410423,-15.629244,-18.807365,-33.548233,164.21709257931,-78.6990608255548,35.7289684799418,25.1022632593655,-0.161682027387179,-2.4829236392407,-0.0562602661216867,-8.55512777379314,-5.43704315199997,-0.156974445241373,42.529016756138,4,29
2025-05-24 16:21:18.537,-3.421671,-13.589952,-22.87657,-20.882191,165.251643540536,-78.6991218920383,35.7288872453246,25.0665577057573,-0.122862286394657,-2.48543434878945,-0.045497482988944,-8.77490138756784,-5.09172753594808,-0.0596712918927995,42.6792797655682,4,29
2025-05-24 16:21:19.533,-5.585676,-12.245728,-37.726463,-25.481663,166.246827729371,-78.6991765609936,35.7288088240232,24.9523426052279,-0.120362972728132,-2.48646596452513,-0.0194892732424121,-8.70531722706285,-4.69803928600685,0.0579123951817054,42.5673990967195,4,29
2025-05-24 16:21:20.543,-8.519875,-10.567169,-25.667351,-27.645712,167.255198791727,-78.6992285151384,35.728730049693,24.8684480120827,-0.144466807133421,-2.48525157119763,0.00525231644935968,-8.58151222957193,-4.55979204833093,-0.0527599395863342,42.5072457172025,4,29
2025-05-24 16:21:21.574,-5.75108,-13.188248,-17.798409,-23.380276,168.285363652626,-78.6992813959827,35.7286510979715,24.886968092389,-0.162977261349186,-2.48407289808477,0.0179275224812309,-8.42002454431618,-4.62131636884031,-0.0671709077899225,42.4070343620427,4,29
2025-05-24 16:21:22.580,-12.675392,-7.236286,-17.001644,-31.725878,169.29043347564,-78.6993348190579,35.7285750722726,24.9694260085384,-0.183421174254382,-2.48314125043697,0.0171421440429465,-8.3903303432948,-4.93713004269199,-0.0361390128075985,42.3892780256152,4,29
2025-05-24 16:21:23.609,-7.322683,-5.466883,-20.125244,-26.557657,170.319409759365,-78.699392789648,35.7284970970944,25.0401080588241,-0.180700702546397,-2.48427094970251,0.0013781747902776,-8.4847173663111,-5.19152326871745,-0.0680590240635029,42.5313734391714,4,29
2025-05-24 16:21:24.606,-4.509604,-8.449583,-16.320675,-57.099426,171.315094866907,-78.6994511166351,35.7284206486383,25.0902320591259,-0.163211750141682,-2.4817737990261,-0.021607283365456,-8.6398680247123,-5.29575474334534,0.0535661273741675,42.5191470981007,4,29
2025-05-24 16:21:25.627,-3.565384,-20.405552,-19.072346,-63.343651,172.334857116581,-78.6995115230842,35.7283410797735,25.0612982863186,-0.13887959036017,-2.48052077986009,-0.0378353838056429,-8.74656000183934,-5.2931657171761,0.0896342920205808,42.4993337085312,4,29
2025-05-24 16:21:26.652,-5.030716,-3.812941,-18.886965,-28.514301,173.359844734305,-78.6995708872896,35.7282606760486,25.0107352160381,-0.129975816639768,-2.48169174440934,-0.0394602880786024,-8.66401552656952,-5.09045589565026,0.0379534202914478,42.5273307718823,4,29
2025-05-24 16:21:27.652,-3.065369,-3.564276,-18.309902,-24.694286,174.357718440351,-78.6996255444463,35.7281834199082,24.9759020383474,-0.149078239761196,-2.48761560400671,-0.0242708762622763,-8.56780534036838,-4.78845631192974,0.122684467894606,42.385251066786,4,29
2025-05-24 16:21:28.676,-3.10462,-2.30829,-17.796429,-27.600142,175.381187678552,-78.6996789836405,35.7281047772614,25.0332425658925,-0.18724793136847,-2.48440538639584,-0.00160528418690611,-8.51,-4.70574252142624,-0.0433168625013616,42.4972326833933,4,29
2025-05-24 16:21:29.703,-5.780706,3.113804,-19.36528,-24.334435,176.407218850075,-78.6997333748711,35.7280261441485,25.0274895894468,-0.200519813454337,-2.48380579759223,0.0023217126053302,-8.5507218850075,-4.89402127802101,0.0366496965067531,42.4361698322414,4,29
2025-05-24 16:21:30.715,-1.491032,3.812931,-22.40546,-64.675797,177.418491051201,-78.6997895284426,35.7279481087926,24.9919562147712,-0.198803194507635,-2.48584439951357,-0.0063679555181371,-8.60163017897597,-5.08510946307208,0.0690754474399297,42.3537713042592,4,29
2025-05-24 16:21:31.716,-1.336777,1.088959,-24.367785,-37.968582,178.419700969744,-78.6998463809852,35.7278706990851,25.0182912930954,-0.209737305294783,-2.48662931946146,-0.00704536812600633,-8.56062093211791,-5.12419700969744,0.0316059806051179,42.3423940193949,4,29
2025-05-24 16:21:32.743,-1.788284,0.924807,-39.11253,-56.699478,179.446435638815,-78.6999047575443,35.7277917030301,25.0865001978868,-0.220249818838459,-2.48638490305957,-0.00990035244490375,-8.5780366330459,-5.14785742555258,0.0333930691644379,42.3633751484151,4,29
2025-05-24 16:21:33.738,-5.45318,1.072048,-32.636108,-25.216057,180.440597552541,-78.6999614902995,35.7277149333909,25.0834949027933,-0.215739550833559,-2.48710734468156,-0.0137156621451612,-8.68084182867789,-5.14797012237294,0.0764358531524725,42.3401927933492,4,29
2025-05-24 16:21:34.751,-3.430578,-1.077997,-23.801924,-59.339882,181.452083297989,-78.7000186454147,35.727636760836,25.1137979124607,-0.165257507057541,-2.4891142059147,-0.00409576113748338,-8.47587501908605,-4.96629167868381,0.0693125031810075,42.3882249927897,4,29
2025-05-24 16:21:35.774,-6.76874,0.492294,-21.941233,-26.625788,182.474225938579,-78.7000725690291,35.7275618464521,25.1315774061421,-0.0736223488580461,-2.48939386640095,0.0141608851957832,-7.72474309896432,-4.50020669623849,-0.00371129692894166,42.5521648532437,4,29
2025-05-24 16:21:36.790,-10.027256,2.469143,-23.166359,-29.312443,183.489510133008,-78.7001196999847,35.727495878343,25.0736153885369,-0.0125751200945964,-2.48538643992999,0.0268946212257292,-6.65216824571119,-3.92076942684582,-0.0397902026601519,42.6711887666259,4,29
2025-05-24 16:21:37.833,-11.531063,-0.921368,-21.183249,-29.183989,184.532517367185,-78.70016061087,35.7274389936421,24.9694842870708,0.0388446899022131,-2.4856994984145,0.0249374860010155,-5.34642672797241,-3.20866093258034,-0.0233741316407617,42.7110367184767,4,29
2025-05-24 16:21:38.836,-13.931549,0.063671,-19.224825,-21.463037,185.534444105727,-78.7001907679915,35.7273964462346,24.8370378069075,0.0784103239811887,-2.49151590973404,0.0316846673365795,-3.97177825198275,-2.31693365850246,-0.00534444105726607,42.5724222967401,4,29
2025-05-24 16:21:39.853,-13.85676,-2.409689,-23.42794,-17.752419,186.550628088129,-78.7002113651122,35.7273663950515,24.7463422158921,0.0996252184501559,-2.48968790345864,0.0482792032491021,-2.50507042956893,-1.46253521478447,-0.103606774981947,42.4033740013364,4,29
2025-05-24 16:21:40.884,-11.548393,-7.8894,-20.157492,-43.552994,187.580047436257,-78.7002231823747,35.7273497255114,24.7809862141497,0.103295408189958,-2.47897698172953,0.0492662702977448,-1.02793358924033,-0.700764897169889,-0.174199525637431,42.3652413282152,4,29
2025-05-24 16:21:41.911,-13.770708,-8.827299,-17.35861,-22.448359,188.604178535617,-78.7002276479392,35.7273450374929,24.8716465336014,0.04037532872677,-2.47779986076065,0.0330489158074364,-0.047283951849062,-0.190621083246447,-0.109582146438317,42.3522286800397,4,29
2025-05-24 16:21:42.932,-16.676476,-4.589346,-15.059087,-20.539705,189.623490785745,-78.7002286493963,35.7273456728871,24.9411383181451,0.00226780527233138,-2.47765792297467,0.0285118790177669,0.178825460712763,-0.0288254607127634,-0.0575301842851053,42.3441053802147,4,29
2025-05-24 16:21:43.937,-13.392391,-2.685539,-16.37851,-22.765451,190.627330831125,-78.7002288,35.7273476428609,25.0028758648807,-0.00372776443620121,-2.44442776585109,0.0213140567871561,0.23527969973499,0.0652796997349898,-0.0374533833775017,42.1771113522718,4,29
2025-05-24 16:21:44.952,-50.762306,-2.163773,-15.248657,-33.86956,191.641693267593,-78.7002278374601,35.7273505534185,25.0384006384222,-0.0127703945861315,-1.76329594776834,-0.00528875549597708,0.350586259435211,0.238338653518566,0.0213354614074262,42.1770292295473,4,29
2025-05-24 16:21:45.963,-9.580364,-10.209797,-18.031158,-19.169437,192.651378435362,-78.7002248247619,35.7273540449624,25.0717523805437,-0.0182256146531968,-0.998706559837089,-0.0618038955494532,0.350917293878288,0.368624059182568,-0.00862405918256772,42.0607333361937,4,29
2025-05-24 16:21:47.006,-16.265385,-1.98822,-15.850919,-19.942348,193.692476316997,-78.7002223227903,35.7273564079621,25.0233696077873,0.0168651434623476,-0.0787663434671703,-0.0602188481634312,0.14995615758081,0.261504736600623,0.146968605589159,42.0732564001835,4,29
2025-05-24 16:21:48.005,-24.22654,-3.375805,-22.198029,-27.102825,194.69139021469,-78.7002209703317,35.727356830861,25.0354092422373,0.0544945805619421,0.617999509881911,-0.0348937253744182,-0.0821058472317478,0.2,0.0156690334461736,42.039798735096,4,29
2025-05-24 16:21:49.046,-20.98176,3.39513,-24.293362,-27.530361,195.732047474484,-78.7002205267952,35.7273555555193,24.9922400596178,0.0733364938503117,1.53383342977988,-0.00102489971085227,-0.186602373724206,0.0243086061238128,0.0956913938761872,42.1079507413767,4,29
2025-05-24 16:21:50.066,-21.411581,-1.755623,-17.773027,-28.825277,196.751074594811,-78.7002217768268,35.7273540484956,25.0195709232575,0.0535835448954693,2.2397475452617,0.0364470450708253,-0.14742477836326,-0.152661189221587,-0.0202579027545388,41.9251840691257,4,29
2025-05-24 16:21:51.079,-21.569653,0.684843,-17.427452,-25.111351,197.762540619971,-78.7002238013353,35.7273531662216,25.113779143237,0.0182638709894358,-1.63281570879049,0.0397122764141212,-0.0308697194037842,-0.212876218599127,0.0496319053950514,42.192093116507,4,29
2025-05-24 16:21:52.101,-52.083755,2.920715,-10.704721,-24.292456,198.78323453177,-78.7002258664691,35.7273541748518,25.0283471655521,-0.0173668841879521,-2.51803568763765,0.0166769710084955,0.28979677675508,-0.22,0.10566469063541,42.2408238791808,4,29
2025-05-24 16:21:53.084,-20.970345,-0.582907,-13.505524,-23.638044,199.765425295068,-78.7002279073931,35.7273554950529,24.9405931028699,-0.0402485440794865,-2.45137694704871,-0.0255800584225898,0.048521376071499,-0.151111723443893,-0.0583935649149291,42.3000116789167,4,29
2025-05-24 16:21:54.111,-25.322266,-3.350603,-13.378733,-47.730469,200.790152737974,-78.7002288740916,35.7273536665876,24.9648780951126,-0.0278701679402807,-2.46647845703027,-0.0085748504916459,-0.318651930911047,-0.0430831988228964,-0.0783938904810532,42.3862122190379,4,29
2025-05-24 16:21:55.120,-18.620401,-3.101246,-13.355431,-24.542446,201.797642526349,-78.7002284416502,35.7273500689584,24.9456895839987,-0.0130717504243668,-2.46609898569893,0.0234304518494239,-0.326188597892047,0.107622804215905,-0.0460707242095177,42.3543438058927,4,29
2025-05-24 16:21:56.133,-13.43792,-0.538956,-14.316669,-20.013683,202.808571762256,-78.7002268445708,35.7273475211421,24.9153599906568,-0.00392717579071509,-2.46069541111666,0.0486590302513345,-0.0997713418133941,0.107657129509753,0.0246857409804941,42.2231399509483,4,29
2025-05-24 16:21:57.143,-49.02494,0.951529,-15.875325,-21.69285,203.817639857082,-78.7002255188322,35.727347018236,24.9672347899958,0.00684899565132302,-2.49403329903857,0.0573284327543966,0.0726459785623267,0.0427652100042476,-0.0172347899957524,42.0347425880119,4,29
2025-05-24 16:21:58.152,-43.716541,-5.125107,-15.492115,-21.137495,204.825407056105,-78.7002246396744,35.7273479904885,25.0493341927129,0.00864976884506316,1.83629379541279,0.0199550984001136,0.0752377883168353,0.0465081411221098,-0.00523778831683525,42.178938738231,4,29
2025-05-24 16:21:59.204,-19.27953,3.302963,-20.908562,-23.512932,205.876766197678,-78.7002229218208,35.7273488137363,25.0219152225114,0.034430412753194,2.11612165227786,-0.00444613324607094,0.087535323953566,0.190282591628528,0,42.2362888563489,4,29
2025-05-24 16:22:00.214,-11.688595,4.218849,-18.666811,-24.037766,206.88542281595,-78.700216413498,35.7273486343732,24.9841247786258,-0.188875281303857,2.06277634079053,0.0255095288684893,-0.503233286686185,1.36104966073439,0.0354169126379812,42.1176970742149,4,29
2025-05-24 16:22:01.237,-49.969761,-0.509823,-19.915936,-25.375292,207.907446374831,-78.7001910989479,35.7273375291542,24.963665965253,-0.235279401508314,2.08239973552044,0.0409011997643363,-2.00469080848411,3.21599918468161,-0.0144467824898385,42.1029074463748,4,29
2025-05-24 16:22:02.227,-16.432804,-0.676224,-20.947624,-28.918798,208.896350933616,-78.700146381871,35.7273129156055,24.9216642079873,-0.278927549660055,2.08467012125675,0.0349930462084015,-3.52141692843195,5.04824922718896,-0.0379270186723131,42.0151576085057,4,29
2025-05-24 16:22:03.249,-19.323189,-1.531097,-42.538891,-33.938553,209.917355281054,-78.7000774686014,35.7272727719045,24.9894710672032,-0.280931069866442,2.07327388057456,0.00770097533517953,-5.11107423844362,7.34991714642329,-0.030826447189464,41.9958264471895,4,29
2025-05-24 16:22:04.268,-37.635029,0.519772,-25.439587,-21.425716,210.936175294107,-78.6999875378411,35.7272219359126,25.1673200788216,-0.109185344402598,2.06781889159684,-0.015931369398567,-5.65191712940711,8.44809003528385,-0.0112764941178587,42.3338954564668,4,29
2025-05-24 16:22:05.289,-9.520926,-2.534838,-62.509102,-20.503578,211.956327878817,-78.6998900881564,35.7271699272782,25.0479830806021,-0.0666948972496597,2.0692834280542,-0.00218087036778254,-5.56524065454196,8.69170229697522,0.200392133339731,42.1599964569637,4,29
2025-05-24 16:22:06.301,-9.666084,-1.074991,-62.691662,-19.635204,212.96749127197,-78.6997925370923,35.7271200026803,24.9868529974977,-0.0596446728784595,2.06961918958349,0.0316753067251366,-5.45357596008331,8.62260069824241,-0.0608975561515756,42.2061470025023,4,29
2025-05-24 16:22:07.326,-11.464529,-3.862482,-28.827936,-20.376408,213.992020051308,-78.6996951580951,35.7270700886235,25.0911461454899,-0.0496571617979211,2.06237239668515,0.040531000924104,-5.47976060153923,8.48111719281695,-0.0600797994869248,42.3994598699024,4,29
2025-05-24 16:22:08.336,-7.90217,-3.97912,-76.432251,-22.298101,215.000836126248,-78.6996011234108,35.7270204574412,25.0819607020663,-0.0731035755402038,2.06125377594696,0.0612564157577261,-5.54018394777458,8.33996655495008,0.129966554950077,42.2719765884651,4,29
2025-05-24 16:22:09.346,-7.482658,-6.821875,-25.530022,-19.738155,216.009725451328,-78.6995087091487,35.7269691001118,25.0351945090266,-0.0655349936870831,2.06587097147161,0.0328566392529618,-5.75970823646015,8.29970823646015,0.0895137274335858,42.2441945090266,4,29
2025-05-24 16:22:10.377,-6.586876,-7.170296,-26.850063,-20.99493,217.040157320634,-78.6994143215894,35.7269161600081,25.0534338644953,-0.0592285750705356,2.07326740974354,0.0331259196428462,-5.72558269473024,8.26959842679366,0.039196853587316,42.261911819327,4,29
2025-05-24 16:22:11.376,-9.892046,-10.458166,-42.76722,-56.143845,218.037847599348,-78.6993229142361,35.7268654811267,25.0149024196189,-0.0575938539405594,2.07771078309645,0.0228093125302733,-5.61924304801303,8.26302780794787,0.0196215240065167,42.211129505215,4,29
2025-05-24 16:22:12.381,-5.443148,-10.005571,-47.91404,-19.284718,219.041589101159,-78.6992304779616,35.7268146205449,24.9878317820232,-0.0488382230669783,2.07568585303731,0.0255816222190282,-5.59916821797681,8.33916821797681,0.0116635640463764,42.1876275596617,4,29
2025-05-24 16:22:13.416,-3.087492,-9.008671,-25.624718,-20.437548,220.075055648789,-78.6991354723636,35.726762887173,25.0063244991609,-0.051762843885773,2.0759254486674,0.0347893791852531,-5.58150111297579,8.31699777404842,0.0439955480968464,42.1573510016782,4,29
2025-05-24 16:22:14.424,-9.948917,-11.978888,-41.854908,-27.188934,221.083394931257,-78.6990425194007,35.7267116968955,24.9973328405499,-0.0358560093004447,2.07487970652916,0.0254003719326582,-5.59833210137487,8.27583025343716,-0.0233284054994625,42.1672450105682,4,29
2025-05-24 16:22:15.436,-8.243237,-11.118326,-62.546734,-21.590698,222.093372699478,-78.698950656398,35.726660831365,24.9968162070619,-0.0536009519960197,2.07366972331141,0.0193059806254825,-5.56879527606259,8.23653608896349,0.038795276062586,42.1056053144296,4,29
2025-05-24 16:22:16.472,-9.683407,-10.635185,-24.837811,-21.843054,223.129147139645,-78.6988558572073,35.7266091459607,25.0578341144142,-0.0431874873867311,2.0728836233028,0.0243790824713631,-5.46129147139645,8.31291471396453,-0.0415876292780409,42.2096611061704,4,29
2025-05-24 16:22:17.483,-4.463095,-9.272694,-57.584869,-24.041332,224.138670195501,-78.6987630620708,35.7265593664902,25.0085782996679,-0.0592693905966389,2.07029631075617,0.0274132319585939,-5.47970691368505,8.40277340391001,0.11810585503483,42.0939042011435,4,29
2025-05-24 16:22:18.490,-11.262604,-11.703835,-27.9433,-57.473022,225.145043432093,-78.6986694140216,35.7265090478284,24.9362601684191,-0.0171703056976734,2.07267906241313,0.0321504271121867,-5.54,8.40259478814879,-0.0683965254325246,42.1495269544442,4,29
2025-05-24 16:22:19.500,-10.610035,-7.675276,-26.055609,-24.084011,226.152808903445,-78.6985772249516,35.7264586137122,25.0299011281174,-0.0330509344468958,2.0748090532287,0.0237340732030884,-5.5461123561378,8.28013484255214,-0.00305617806890203,42.1899865157448,4,29
2025-05-24 16:22:20.532,-7.283148,-7.839373,-59.131119,-19.171419,227.183907563781,-78.6984837851008,35.7264067678403,24.9723103780991,-0.0382352668546806,2.07276210979464,0.00808715070922695,-5.57448277308658,8.17551722691342,-0.02,42.1894138234818,4,29
2025-05-24 16:22:21.519,-3.733114,-8.024939,-28.570116,-27.424622,228.170201371786,-78.6983950627356,35.7263573409918,24.9280842973968,-0.061132776597307,2.07339464171986,-0.00920838731954343,-5.52957583538568,8.21191409602502,-0.0404241646143166,42.1699978578958,4,29
2025-05-24 16:22:22.559,-8.910772,-12.014069,-27.513844,-35.44511,229.20946344487,-78.698300466524,35.7263059619693,24.9782025353155,-0.0678119409597318,2.06342500562816,-0.00746164874894433,-5.4216214622052,8.31608195787138,-0.114864386615614,42.3121754126386,4,29
2025-05-24 16:22:23.563,-6.005236,-9.139948,-23.905617,-25.157581,230.21285266207,-78.6982074492792,35.7262572489343,24.9462771159724,-0.0682868075988684,2.05636980196818,0.0158525152459876,-5.42618495255192,8.50702821296561,-0.0178714733792988,42.2602128526621,4,29
2025-05-24 16:22:24.583,-5.0292,-17.958576,-25.276802,-32.531582,231.231627167494,-78.6981112954191,35.7262069491535,24.9398818959603,-0.0514874291587842,2.06054589836216,0.0270912235176699,-5.58547898842438,8.58389763004966,-0.0238976300496639,42.2415433179305,4,29
2025-05-24 16:22:25.593,-3.622719,-11.148378,-33.010597,-22.842197,232.241123929215,-78.6980157308002,35.72615590623,24.9215665425496,-0.0355882623222481,2.07100544623105,0.0362499048488344,-5.67241123929215,8.56489653911187,-0.0434763677863188,42.161326944601,4,29
2025-05-24 16:22:26.626,-4.999397,-8.166937,-60.112465,-28.817587,233.273462736286,-78.6979193773506,35.7261029807467,24.98957119577,-0.0474974702665074,2.07650103632401,0.0173122839418419,-5.65538835373426,8.35453074527428,0.04,42.1106326863186,4,29
2025-05-24 16:22:27.623,-12.612354,-8.647551,-24.565527,-44.965092,234.269048235051,-78.6978273475624,35.7260525744931,25.0147309517649,-0.0279604571403349,2.07939803784494,0.0168324892578474,-5.56309517649492,8.32923807059797,0.0426904823505085,42.0932785400124,4,29
2025-05-24 16:22:28.630,-12.344179,-6.861147,-30.60482,-27.229975,235.275575522962,-78.6977347746094,35.7260025416843,25.0054571587882,-0.0249568264730714,2.07781882272168,0.023154793702782,-5.48448848954076,8.30551151045924,0.0444884895407607,42.0444258280356,4,29
2025-05-24 16:22:29.625,-15.616854,-6.902065,-60.83107,-26.212866,236.269882092822,-78.697643316871,35.72595348686,24.9808409432574,-0.0128859059134329,2.07671890836476,0.0276085093517073,-5.48349410464112,8.30650589535888,0.0111082535024311,42.0242555195273,4,29
2025-05-24 16:22:30.664,-7.628872,-9.69998,-58.31781,-33.381081,237.308510085465,-78.6975479872842,35.7259018670488,24.9759255302564,-0.0042934658342727,2.07678804459074,0.0317287784422974,-5.52308510085465,8.23606389059889,-0.0307446974360615,42.0408936369233,4,29
2025-05-24 16:22:31.673,-12.96422,-6.81925,-40.479473,-25.598953,238.316027268547,-78.6974567575458,35.7258516986366,24.9773679454629,-0.0126266355013602,2.07709788780897,0.0243294653789104,-5.53,8.15051918194358,-0.0131602726854721,42.0178961636113,4,29
2025-05-24 16:22:32.692,-2.750975,-10.189737,-24.729685,-28.33036,239.33516591655,-78.6973648674846,35.7258007752208,24.9763351659165,-0.0192924933791328,2.07585627817181,0.0173184541241725,-5.5333516591655,8.16016493248947,-0.016648340834503,42.0176428430849,4,29
2025-05-24 16:22:33.686,-3.649113,-9.053753,-25.450336,-40.230915,240.3279224509,-78.6972746950957,35.7257512366697,24.9825746816653,-0.0253101542036077,2.07423477903401,0.0183230593008605,-5.533441550982,8.249513020581,-0.01,42.0135909143126,4,29
2025-05-24 16:22:34.728,-6.909424,-7.296799,-55.663071,-61.253372,241.368539581915,-78.6971793312124,35.7256994204367,25.0076359645309,-0.0260682579423279,2.07441642802358,0.0213427459545875,-5.49788762508509,8.30631460418085,-0.00631460418084825,42.0174719062713,4,29
2025-05-24 16:22:35.734,-3.461208,-11.735651,-21.783855,-69.69838,242.374872109474,-78.6970868492531,35.725649431369,25.0482441170358,-0.0306329789018218,2.07677809894883,0.0250190506816029,-5.48998976875794,8.28500511562103,0.033738489852686,41.9922553714021,4,29
2025-05-24 16:22:36.762,-1.52523,-10.364656,-18.735977,-51.66745,243.401966978435,-78.6969927004149,35.7255982016511,25.0850393395687,-0.0379290434818561,2.07947399159109,0.0201761973745836,-5.55205900935304,8.28009834892174,0.0739213208626073,41.9941376884904,4,29
2025-05-24 16:22:37.773,-2.508669,-7.412651,-18.886578,-53.177254,244.412388780967,-78.6969000365155,35.7255475156054,25.0937008897523,-0.0356811345696942,2.07564290507673,0.0108667890818204,-5.55762833657098,8.32237166342902,0.0293805609516272,42.0953839844593,4,29
2025-05-24 16:22:38.789,1.164087,-8.190044,-19.340502,-52.374451,245.427884903527,-78.6968058783385,35.7254966341203,25.0603317114637,-0.0347650801842862,2.06837277784779,0.00654599409815277,-5.48865381157677,8.3956250374585,-0.00427884903526896,42.1996827055622,4,29
2025-05-24 16:22:39.802,1.954741,-10.384464,-51.120819,-51.741753,246.43869908147,-78.6967116132456,35.725446703745,24.9991876477636,-0.0407813015257339,2.0639723088847,0.0357503414154777,-5.46386990814696,8.38226018370607,0.0294829173322682,42.1742335083866,4,29
2025-05-24 16:22:40.826,-1.147886,-10.945549,-15.862532,-52.397064,247.461596084698,-78.6966178486716,35.7253958893977,24.9247635836996,-0.0496380905839538,2.0678774624932,0.0393325704819837,-5.59847133439872,8.19614462644826,0.00152866560127857,42.1001528665601,4,29
2025-05-24 16:22:41.847,-3.289339,-7.724319,-18.182068,-51.757935,248.481270203651,-78.6965263300627,35.7253440108386,24.9066514546629,-0.0668544487958428,2.07130875467763,-0.00177197342938734,-5.69,8.20144133869365,-0.0611237877809518,42.1001441338694,4,29
2025-05-24 16:22:42.854,-1.645988,-6.814726,-24.434494,-51.846992,249.48820140218,-78.696434201989,35.7252926970091,24.9708510771199,-0.0569910753941308,2.07496243600692,-0.0077326860328465,-5.61676978967304,8.42693236456673,-0.03,42.1060943887826,4,29
2025-05-24 16:22:43.858,-0.236097,-9.243401,-23.745623,-52.399723,250.491195882985,-78.6963398346303,35.7252423875646,25.0201214229683,-0.0336371490387189,2.07790583343771,0.00706529874410064,-5.49579237053137,8.54526412351046,-0.000528247020910037,42.0848081440955,4,29
2025-05-24 16:22:44.863,-2.724207,-11.537708,-21.611591,-50.269466,251.49598357872,-78.6962452255354,35.7251927472063,25.0355522134766,-0.0291196790015346,2.07412350638841,0.016452658656469,-5.43512049263839,8.47048197055357,0.0250401642127974,42.0709678686298,4,29
2025-05-24 16:22:45.877,-1.129259,-9.228781,-16.962067,-62.642109,252.508244917041,-78.6961510365207,35.7251429943501,25.0101949380695,-0.025283289873709,2.06926534476304,0.0202021496232026,-5.44541224585207,8.35409305912545,0.00983510165917282,42.0953297966817,4,29
2025-05-24 16:22:46.890,-0.758478,-7.073635,-18.279232,-52.914867,253.520198644064,-78.6960580578837,35.7250931542068,24.9847172189831,-0.0273795843461376,2.06668374800488,0.0219234719548163,-5.50121191864386,8.28439404067807,-0.0156059593219323,42.1352877471185,4,29
2025-05-24 16:22:47.911,-5.959789,-6.166039,-16.906008,-52.092239,254.540476026395,-78.6959651166816,35.7250424761987,24.9861071403959,-0.0390518570948042,2.06894138578384,0.0270329978978956,-5.53,8.23216667815234,-0.0245952397360491,42.171835708871,4,29
2025-05-24 16:22:48.908,-6.507427,-6.969837,-14.450307,-53.493492,255.537166244397,-78.6958746864549,35.7249925342545,24.9784965114013,-0.0390031426853138,2.06856709112087,0.0192923852468508,-5.56222997466381,8.1838850126681,-0.00925667511206393,42.1547700253362,4,29
2025-05-24 16:22:49.949,-1.809372,-7.607412,-9.752495,-52.811684,256.576807739081,-78.6957807142612,35.7249400558476,24.9481189600885,-0.0539184917843584,2.06480834212454,0.0050871883324239,-5.63614461912647,8.16423192260919,-0.0749850060805065,42.1771822733,4,29
2025-05-24 16:22:50.945,0.039789,-11.034004,-13.716124,-51.518219,257.572448018619,-78.6956902354959,35.7248895196407,24.9344275519814,-0.0632917308417374,2.0721822230108,0.00317672404599049,-5.61275519813809,8.26304064335144,-0.0842041585104699,42.1504582699333,4,29
2025-05-24 16:22:51.966,0.247923,-14.893693,-18.988449,-50.33176,258.592899439019,-78.6955964753818,35.7248383328979,25.0045550332433,-0.0610952061642006,2.07365747714102,0.0050058856225721,-5.46920709536671,8.33407100560981,-0.0440710056098067,42.1806698265115,4,29
2025-05-24 16:22:52.987,-1.842163,-12.845177,-11.861193,-63.388878,259.612144099945,-78.6955022154563,35.7247882885823,25.0432056944009,-0.0665597207243229,2.06431206427549,0.0087566672048251,-5.43672864599668,8.36672864599668,0.0273358509939131,42.1727855900055,4,29
2025-05-24 16:22:54.008,-5.719751,-8.943899,-10.846594,-51.930161,260.631966449859,-78.6954074007269,35.7247380544641,25.0142492078051,-0.0584495963471936,2.06386359058254,0.00596358513612362,-5.48527865799436,8.42791798699153,-0.0121556384816601,42.1681261882924,4,29
2025-05-24 16:22:55.030,-8.696777,-7.805916,-8.886751,-53.872322,261.65302444351,-78.6953121728194,35.7246878671047,25.0943824954219,-0.0712731201504978,2.07443449990945,0.0307604123405464,-5.47387902225961,8.54795366652647,-0.105711711045685,42.3989268952537,4,29
2025-05-24 16:22:56.043,-15.397677,-5.12682,-6.589214,-52.626266,262.664864049274,-78.6952169038609,35.7246373908519,25.0263190632785,-0.0395689706114625,2.08856672327227,0.0351967026988978,-5.59297280985484,8.48697311162339,0.0561619337967768,42.3201840178583,4,29
2025-05-24 16:22:57.062,-10.223635,-5.628824,-7.969963,-50.508236,263.682409930366,-78.6951228959734,35.7245859018165,24.898076597033,-0.0357540684216155,2.08490669795899,0.0308383267272468,-5.63952770208901,8.30716621253406,-0.0342506811989098,42.2506139872843,4,29
2025-05-24 16:22:58.076,-8.609489,-6.382376,-5.675806,-53.306503,264.696061571932,-78.6950304191846,35.724534370466,24.9592722506389,-0.0461166090044097,2.07889167577611,0.0285889960852215,-5.64392123143864,8.2848030785966,-0.0295119956488529,42.1961780890945,4,29
2025-05-24 16:22:59.080,-11.365324,-8.802113,-5.830603,-52.999702,265.699499572318,-78.6949390455389,35.724482945722,25.002098498717,-0.0411468604974825,2.07995671974388,0.010061131598697,-5.67098498716955,8.30699499572318,0.11492493584773,42.0194055902409,4,29
2025-05-24 16:23:00.084,-6.098715,-9.890329,-6.678102,-50.080315,266.703351868243,-78.6948469212929,35.7244320510658,25.0529379826453,-0.0196103595864439,2.07452402019438,0.0171895145527689,-5.54636314503384,8.33110055604729,0.0755977758108446,41.9735837967061,4,29
2025-05-24 16:23:01.119,-6.318615,-10.099043,-7.049479,-51.272087,267.736897668277,-78.6947525423122,35.724381065704,25.0754737953366,-0.0336965815188122,2.07262389904774,0.0223800567776967,-5.41631023317227,8.31052409326891,0.106320790144961,41.9382599352399,4,29
2025-05-24 16:23:02.138,-6.175627,-6.941053,-12.200989,-54.608749,268.754715793575,-78.694659166147,35.7243315208124,25.0488302314313,-0.0426472972410933,2.07087442877326,0.0243888733748581,-5.3749056841285,8.330188631743,-0.00584884284351261,41.9622452212659,4,29
2025-05-24 16:23:03.147,-4.007498,-7.30814,-16.048319,-53.552681,269.762083661879,-78.6945665645115,35.7242827151508,25.1360225413968,-0.0519810859024432,2.07493692978963,0.025068648254803,-5.35475832676242,8.28665414366847,-0.141450039425485,42.2973613889748,4,29
2025-05-24 16:23:04.167,-2.276995,-8.381769,-24.236115,-55.383904,270.780322251968,-78.694472286095,35.7242326520808,24.9974503935749,-0.0450395739156862,2.07683306530076,0.0408289535891575,-5.52947411795261,8.4182612278739,0.157735345826509,42.1139627002837,4,29
2025-05-24 16:23:05.165,-0.786928,-4.959141,-11.64447,-50.893261,271.777636292637,-78.6943792687703,35.7241822960763,24.8193571028371,-0.0239498017148945,2.0796802378678,0.0548315791511824,-5.63443454048456,8.47555272585273,-0.00661997657005978,41.9476823715173,4,29
2025-05-24 16:23:06.179,-0.746742,-6.130962,-6.249859,-53.677071,272.791312395743,-78.694284828816,35.7241302474116,24.8975316097784,-0.00866700410286329,2.08088008644117,0.0527292947685936,-5.68165249582971,8.35339001668117,-0.135391867701986,41.9934268032211,4,29
2025-05-24 16:23:07.212,1.137928,-4.698421,-6.371948,-51.84613,273.822753529237,-78.6941904471535,35.7240777863961,24.990529268222,-0.00459848920897903,2.08322740453252,0.039493452257509,-5.57481450590678,8.29531739412288,-0.0841797176610197,42.0852250641021,4,29
2025-05-24 16:23:08.226,1.055113,-7.276758,-13.396181,-50.315887,274.835352427309,-78.6940974475767,35.7240273665196,25.0081767621365,-0.00124438237823927,2.08481897919773,0.0505419703372651,-5.44140418444988,8.26493942718074,-0.0115253300883965,42.0817868941719,4,29
2025-05-24 16:23:09.222,0.821918,-8.232771,-9.005037,-52.238636,275.830910206104,-78.6940062717161,35.7239784023089,24.9990290775268,-0.0154595168132936,2.08395130358451,0.0592290437372009,-5.49478191854936,8.27661820412208,0,42.0630436162901,4,29
2025-05-24 16:23:10.267,-0.1376,-8.362764,-10.394863,-52.005859,276.874682290527,-78.6939110289751,35.7239262784172,24.9733835781558,-0.0157412511937845,2.08244394293595,0.0433569426304552,-5.57997458324213,8.1750381251368,-0.017493645810533,42.058250635419,4,29
2025-05-24 16:23:11.283,1.18898,-7.347143,-6.174212,-51.263058,277.890184376361,-78.6938189492955,35.7238749566706,25.0073877438072,-0.0214498146690105,2.0785762906428,0.0272526047033658,-5.59890184376361,8.16890184376361,0.00670553129083429,42.0508785249891,4,29
2025-05-24 16:23:12.299,2.790115,-8.891443,-5.40851,-52.408791,278.905264356814,-78.6937265304171,35.7238235030971,24.9323367366003,-0.0186593894049249,2.07959236289572,0.0250958140371272,-5.6,8.25147379211331,0.000947356431855009,42.0183157475115,4,29
2025-05-24 16:23:13.319,1.610664,-20.228115,-2.741898,-50.839088,279.924673006303,-78.6936338472237,35.7237721889478,24.9887271104412,-0.0179503389153221,2.07586682536795,0.0113305796131161,-5.57225980981091,8.21376634968485,-0.0462336503151494,42.0297947681008,4,29
2025-05-24 16:23:14.318,1.170921,-13.365217,-0.943878,-53.054588,280.923174978671,-78.6935419755845,35.7237223335686,24.999539049872,-0.0275750445843244,2.07486209523481,0.0118148482033224,-5.48691425191958,8.38540324594756,0.0238539982937096,42.0051511005972,4,29
2025-05-24 16:23:15.346,2.439041,-8.097128,-4.714664,-52.650486,281.949659651889,-78.6934471514482,35.723672251575,24.9905034034811,0.091418085633356,2.07583022321782,0.0228446977273024,-5.23308849050892,8.11510210443337,0.0110068069622247,41.9792585087028,4,29
2025-05-24 16:23:16.354,2.596321,-5.915945,-0.140799,-53.727299,282.956216533499,-78.6933621778112,35.7236279177158,24.9641821535955,0.131735957605525,2.07837229605044,0.0206272245861543,-4.52196193054541,7.02903748248062,0.00043783466500558,41.9368826890595,4,29
